{"name":"Gemalto","category":"hardware","founded_year":2006,"number_employees":12000,"country":"NLD","city":"Amsterdam","address":"Barbara Strozzilaan 382","latitude":52.336117,"longitude":4.887641,"type_company":"Big Company","geopoint":{"type":"Point","coordinates":[4.887641,52.336117]}}
{"name":"EPAM Systems","category":"software","founded_year":1993,"number_employees":8100,"country":"GBR","city":"London","address":"12 Tokenhouse Yard","latitude":51.5154835,"longitude":-0.0881016,"type_company":"Big Company","geopoint":{"type":"Point","coordinates":[-0.0881016,51.5154835]}}
{"name":"Globant","category":"software","founded_year":2003,"number_employees":2800,"country":"GBR","city":"London","address":"Central Point, 45 Beech Street","latitude":51.5205095,"longitude":-0.0952197,"type_company":"Big Company","geopoint":{"type":"Point","coordinates":[-0.0952197,51.5205095]}}
{"name":"CEGID","category":"software","founded_year":1983,"number_employees":2000,"country":"FRA","city":"Lyon","address":"52 quai Paul Sedallian","latitude":45.7924745,"longitude":4.8207353,"type_company":"Big Company","geopoint":{"type":"Point","coordinates":[4.8207353,45.7924745]}}
{"name":"smartFOCUS","category":"software","founded_year":1999,"number_employees":550,"country":"GBR","city":"Bristol","address":"One Redcliff Street","latitude":51.4525116,"longitude":-2.5909744,"type_company":"Big Company","geopoint":{"type":"Point","coordinates":[-2.5909744,51.4525116]}}
{"name":"Central Reservations","category":"web","founded_year":2008,"number_employees":510,"country":"IRL","city":"Dun Laoghaire","address":"93 Upper Georges Street","latitude":53.342689,"longitude":-6.2644783,"type_company":"Big Company","geopoint":{"type":"Point","coordinates":[-6.2644783,53.342689]}}
{"name":"DemandTec","category":"software","founded_year":1999,"number_employees":350,"country":"GBR","city":"London","address":"1 Northumberland Ave","latitude":51.5069206,"longitude":-0.1249337,"type_company":"Big Company","geopoint":{"type":"Point","coordinates":[-0.1249337,51.5069206]}}
{"name":"Absolute Software","category":"software","founded_year":1993,"number_employees":300,"country":"GBR","city":"Newbury","address":"78 Bartholomew Street","latitude":51.399101,"longitude":-1.325337,"type_company":"Big Company","geopoint":{"type":"Point","coordinates":[-1.325337,51.399101]}}
{"name":"SPIL GAMES","category":"games_video","founded_year":2004,"number_employees":300,"country":"NLD","city":"Hilversum","address":"Arendstraat 23","latitude":52.220726,"longitude":5.198824,"type_company":"Big Company","geopoint":{"type":"Point","coordinates":[5.198824,52.220726]}}
{"name":"Icreon Communications","category":"software","founded_year":2000,"number_employees":300,"country":"GBR","city":"London","address":"Shakespeare House","latitude":51.4647321,"longitude":-0.1614896,"type_company":"Big Company","geopoint":{"type":"Point","coordinates":[-0.1614896,51.4647321]}}
{"name":"Icreon Communications","category":"software","founded_year":2000,"number_employees":300,"country":"GBR","city":"Bradford","address":"Bradford Chamber Business Park","latitude":53.7906412,"longitude":-1.7167505,"type_company":"Big Company","geopoint":{"type":"Point","coordinates":[-1.7167505,53.7906412]}}
{"name":"ioko","category":"software","founded_year":1996,"number_employees":270,"country":"GBR","city":"York","address":"1 Innovation Close","latitude":53.949714,"longitude":-1.045716,"type_company":"Big Company","geopoint":{"type":"Point","coordinates":[-1.045716,53.949714]}}
{"name":"ClickandBuy","category":"web","founded_year":2000,"number_employees":240,"country":"DEU","city":"Cologne","address":"Im Mediapark 5","latitude":50.947699,"longitude":6.94205,"type_company":"Big Company","geopoint":{"type":"Point","coordinates":[6.94205,50.947699]}}
{"name":"WSO2","category":"software","founded_year":2005,"number_employees":228,"country":"GBR","city":"","address":"Portsmouth,","latitude":50.8472228,"longitude":-0.919424,"type_company":"Big Company","geopoint":{"type":"Point","coordinates":[-0.919424,50.8472228]}}
{"name":"Realtime Worlds","category":"games_video","founded_year":2002,"number_employees":225,"country":"GBR","city":"Dundee","address":"","latitude":56.461428,"longitude":-2.968111,"type_company":"Big Company","geopoint":{"type":"Point","coordinates":[-2.968111,56.461428]}}
{"name":"deltatre","category":"games_video","founded_year":1986,"number_employees":225,"country":"ITA","city":"Torino","address":"via millio 41","latitude":45.058576,"longitude":7.649614,"type_company":"Big Company","geopoint":{"type":"Point","coordinates":[7.649614,45.058576]}}
{"name":"Appian","category":"software","founded_year":1999,"number_employees":215,"country":"GBR","city":"London","address":"73 Watling Street","latitude":51.513122,"longitude":-0.094384,"type_company":"Big Company","geopoint":{"type":"Point","coordinates":[-0.094384,51.513122]}}
{"name":"ePartners","category":"software","founded_year":1992,"number_employees":215,"country":"GBR","city":"London","address":"4 Lombard Street","latitude":51.5123703,"longitude":-0.0865272,"type_company":"Big Company","geopoint":{"type":"Point","coordinates":[-0.0865272,51.5123703]}}
{"name":"Tom's Hardware","category":"hardware","founded_year":1995,"number_employees":200,"country":"FRA","city":"Suresnes","address":"26 avenue Charles de Gaulle","latitude":48.88058,"longitude":2.236516,"type_company":"Big Company","geopoint":{"type":"Point","coordinates":[2.236516,48.88058]}}
{"name":"Redwood Software","category":"software","founded_year":1993,"number_employees":200,"country":"NLD","city":"Houten","address":"Waterveste 3","latitude":52.028929,"longitude":5.142674,"type_company":"Big Company","geopoint":{"type":"Point","coordinates":[5.142674,52.028929]}}
{"name":"Redwood Software","category":"software","founded_year":1993,"number_employees":200,"country":"NLD","city":"Houten","address":"Waterveste 3","latitude":52.028929,"longitude":5.142674,"type_company":"Big Company","geopoint":{"type":"Point","coordinates":[5.142674,52.028929]}}
{"name":"LearningMate","category":"software","founded_year":2003,"number_employees":190,"country":"GBR","city":"London","address":"1 Doughty Street","latitude":51.5241069,"longitude":-0.1169935,"type_company":"Big Company","geopoint":{"type":"Point","coordinates":[-0.1169935,51.5241069]}}
{"name":"WANdisco","category":"software","founded_year":2005,"number_employees":175,"country":"GBR","city":"Sheffield","address":"Electric Works","latitude":53.3800107,"longitude":-1.4629301,"type_company":"Big Company","geopoint":{"type":"Point","coordinates":[-1.4629301,53.3800107]}}
{"name":"PacketFront","category":"software","founded_year":2001,"number_employees":170,"country":"SWE","city":"Stockholm","address":"","latitude":59.332788,"longitude":18.064488,"type_company":"Big Company","geopoint":{"type":"Point","coordinates":[18.064488,59.332788]}}
{"name":"Layer 7 Technologies","category":"software","founded_year":2003,"number_employees":165,"country":"GBR","city":"Surrey","address":"1 Farnham Road","latitude":51.2357089,"longitude":-0.5813902,"type_company":"Big Company","geopoint":{"type":"Point","coordinates":[-0.5813902,51.2357089]}}
{"name":"WIT Software","category":"software","founded_year":2001,"number_employees":160,"country":"PRT","city":"Lisbon","address":"Centro Escritorios Panoramic","latitude":38.7737475,"longitude":-9.0980577,"type_company":"Big Company","geopoint":{"type":"Point","coordinates":[-9.0980577,38.7737475]}}
{"name":"WIT Software","category":"software","founded_year":2001,"number_employees":160,"country":"PRT","city":"Leiria","address":"Pct. Joaquim Dias Ramadas","latitude":39.7365713,"longitude":-8.8085065,"type_company":"Big Company","geopoint":{"type":"Point","coordinates":[-8.8085065,39.7365713]}}
{"name":"WIT Software","category":"software","founded_year":2001,"number_employees":160,"country":"GBR","city":"Reading","address":"Reading Enterprise Centre","latitude":51.4416686,"longitude":-0.9354555,"type_company":"Big Company","geopoint":{"type":"Point","coordinates":[-0.9354555,51.4416686]}}
{"name":"WIT Software","category":"software","founded_year":2001,"number_employees":160,"country":"GBR","city":"Reading","address":"Reading Enterprise Centre","latitude":51.4416686,"longitude":-0.9354555,"type_company":"Big Company","geopoint":{"type":"Point","coordinates":[-0.9354555,51.4416686]}}
{"name":"IsayBlog!","category":"web","founded_year":2008,"number_employees":154,"country":"ITA","city":"Rome","address":"Piazza delle Cinque Scole, 38","latitude":41.8924033,"longitude":12.4764711,"type_company":"Big Company","geopoint":{"type":"Point","coordinates":[12.4764711,41.8924033]}}
{"name":"Allopass","category":"web","founded_year":1991,"number_employees":150,"country":"FRA","city":"Paris","address":"15\/17 rue Vivienne","latitude":48.8683482,"longitude":2.345134,"type_company":"Big Company","geopoint":{"type":"Point","coordinates":[2.345134,48.8683482]}}
{"name":"Allopass","category":"web","founded_year":1991,"number_employees":150,"country":"SWE","city":"Stockholm","address":"Klarabergsviadukten 70, C8","latitude":59.3306738,"longitude":18.0560777,"type_company":"Big Company","geopoint":{"type":"Point","coordinates":[18.0560777,59.3306738]}}
{"name":"Bomgar","category":"software","founded_year":2003,"number_employees":150,"country":"FRA","city":"Paris","address":"54-56 Avenue Hoche","latitude":48.8752305,"longitude":2.2983373,"type_company":"Big Company","geopoint":{"type":"Point","coordinates":[2.2983373,48.8752305]}}
{"name":"Populis","category":"web","founded_year":2004,"number_employees":140,"country":"ITA","city":"Rome","address":"Via Crisoforo Colombo, 115","latitude":41.8663418,"longitude":12.4972454,"type_company":"Big Company","geopoint":{"type":"Point","coordinates":[12.4972454,41.8663418]}}
{"name":"spigit","category":"software","founded_year":2006,"number_employees":120,"country":"GBR","city":"London","address":"10 Margaret Street","latitude":51.5170385,"longitude":-0.1394759,"type_company":"Big Company","geopoint":{"type":"Point","coordinates":[-0.1394759,51.5170385]}}
{"name":"LINKBYNET","category":"web","founded_year":2000,"number_employees":120,"country":"FRA","city":"Nantes","address":"Immeuble Salorges 1","latitude":47.2045191,"longitude":-1.5752629,"type_company":"Big Company","geopoint":{"type":"Point","coordinates":[-1.5752629,47.2045191]}}
{"name":"CASON","category":"hardware","founded_year":1992,"number_employees":115,"country":"HUN","city":"\u00c3\u2030rd","address":"Velencei \u00c3\u00bat 37.","latitude":47.3752475,"longitude":18.9082252,"type_company":"Big Company","geopoint":{"type":"Point","coordinates":[18.9082252,47.3752475]}}
{"name":"CASON","category":"hardware","founded_year":1992,"number_employees":115,"country":"FRA","city":"Paris","address":"32, boul. Vaugirard","latitude":48.8412493,"longitude":2.3171562,"type_company":"Big Company","geopoint":{"type":"Point","coordinates":[2.3171562,48.8412493]}}
{"name":"Tribold","category":"software","founded_year":2003,"number_employees":106,"country":"GBR","city":"London","address":"19 Bolsover Street","latitude":51.5209358,"longitude":-0.1424094,"type_company":"Big Company","geopoint":{"type":"Point","coordinates":[-0.1424094,51.5209358]}}
{"name":"Sift","category":"software","founded_year":1996,"number_employees":105,"country":"GBR","city":"Bristol","address":"48-52 Baldwin Street","latitude":51.451168,"longitude":-2.5869272,"type_company":"Big Company","geopoint":{"type":"Point","coordinates":[-2.5869272,51.451168]}}
{"name":"2 Minutes","category":"games_video","founded_year":2000,"number_employees":105,"country":"FRA","city":"Paris","address":"9 rue biscornet","latitude":48.8502056,"longitude":2.3698033,"type_company":"Big Company","geopoint":{"type":"Point","coordinates":[2.3698033,48.8502056]}}
{"name":"Jedox","category":"software","founded_year":2002,"number_employees":101,"country":"DEU","city":"Frieburg","address":"Bismarckallee 7a","latitude":47.997186,"longitude":7.853767,"type_company":"Big Company","geopoint":{"type":"Point","coordinates":[7.853767,47.997186]}}
{"name":"Cklear","category":"software","founded_year":1990,"number_employees":100,"country":"GBR","city":"","address":"Guanock House, Guanockgate,","latitude":52.8525751,"longitude":0.1726251,"type_company":"Big Company","geopoint":{"type":"Point","coordinates":[0.1726251,52.8525751]}}
{"name":"Black Duck Software","category":"software","founded_year":2002,"number_employees":100,"country":"GBR","city":"Manchester","address":"67 Downham Cresent","latitude":53.524419,"longitude":-2.258714,"type_company":"Big Company","geopoint":{"type":"Point","coordinates":[-2.258714,53.524419]}}
{"name":"Black Duck Software","category":"software","founded_year":2002,"number_employees":100,"country":"NLD","city":"Amsterdam","address":"Strawinskylaan 3051","latitude":52.340609,"longitude":4.870312,"type_company":"Big Company","geopoint":{"type":"Point","coordinates":[4.870312,52.340609]}}
{"name":"Industria","category":"software","founded_year":2003,"number_employees":100,"country":"GBR","city":"London","address":"","latitude":51.500152,"longitude":-0.126236,"type_company":"Big Company","geopoint":{"type":"Point","coordinates":[-0.126236,51.500152]}}
{"name":"Trivantis Corporation","category":"software","founded_year":1999,"number_employees":100,"country":"FRA","city":"Paris","address":"76-78 Avenue des Champs Elys\u00c3\u00a9es","latitude":48.8709209,"longitude":2.3040091,"type_company":"Big Company","geopoint":{"type":"Point","coordinates":[2.3040091,48.8709209]}}
{"name":"e-Spirit","category":"software","founded_year":1999,"number_employees":100,"country":"DEU","city":"Dortmund","address":"Barcelonaweg 14","latitude":47.3728324,"longitude":8.5384658,"type_company":"Big Company","geopoint":{"type":"Point","coordinates":[8.5384658,47.3728324]}}
{"name":"NearSoft Europe","category":"software","founded_year":2006,"number_employees":100,"country":"CHE","city":"Zurich","address":"Sumatrastrasse 1","latitude":47.3799427,"longitude":8.5436847,"type_company":"Big Company","geopoint":{"type":"Point","coordinates":[8.5436847,47.3799427]}}
{"name":"Openbravo","category":"software","founded_year":2006,"number_employees":100,"country":"ESP","city":"Barcelona","address":"Pau Claris 138","latitude":41.3935324,"longitude":2.1660785,"type_company":"Big Company","geopoint":{"type":"Point","coordinates":[2.1660785,41.3935324]}}
{"name":"Ergon Informatik","category":"software","founded_year":1984,"number_employees":100,"country":"CHE","city":"Zurich","address":"Kleinstrasse 15","latitude":47.3639548,"longitude":8.5534151,"type_company":"Big Company","geopoint":{"type":"Point","coordinates":[8.5534151,47.3639548]}}
{"name":"Zmags","category":"software","founded_year":2006,"number_employees":95,"country":"DNK","city":"Copenhagen","address":"Frederiksborggade 20B, 1.","latitude":55.6839208,"longitude":12.571492,"type_company":"Big Company","geopoint":{"type":"Point","coordinates":[12.571492,55.6839208]}}
{"name":"Zmags","category":"software","founded_year":2006,"number_employees":95,"country":"GBR","city":"London","address":"Inigo House, 30 Bedford Street","latitude":51.5111369,"longitude":-0.1247662,"type_company":"Big Company","geopoint":{"type":"Point","coordinates":[-0.1247662,51.5111369]}}
{"name":"24SevenOffice","category":"software","founded_year":1997,"number_employees":90,"country":"NOR","city":"Oslo","address":"\u00c3\u02dcstensj\u00c3\u00b8veien 34","latitude":59.910781,"longitude":10.812187,"type_company":"Big Company","geopoint":{"type":"Point","coordinates":[10.812187,59.910781]}}
{"name":"24SevenOffice","category":"software","founded_year":1997,"number_employees":90,"country":"SWE","city":"Stockholm","address":"St Eriksgatan 117","latitude":59.347547,"longitude":18.040296,"type_company":"Big Company","geopoint":{"type":"Point","coordinates":[18.040296,59.347547]}}
{"name":"24SevenOffice","category":"software","founded_year":1997,"number_employees":90,"country":"GBR","city":"London","address":"2 Sheraton Street","latitude":51.514913,"longitude":-0.134634,"type_company":"Big Company","geopoint":{"type":"Point","coordinates":[-0.134634,51.514913]}}
{"name":"24SevenOffice","category":"software","founded_year":1997,"number_employees":90,"country":"NOR","city":"Skien","address":"Klosterg. 33","latitude":59.1997691,"longitude":9.6107217,"type_company":"Big Company","geopoint":{"type":"Point","coordinates":[9.6107217,59.1997691]}}
{"name":"Xandros","category":"software","founded_year":2001,"number_employees":89,"country":"DEU","city":"Frankfurt","address":"Kastor & Pollux - Platz der Einheit 1","latitude":50.980474,"longitude":7.345009,"type_company":"Big Company","geopoint":{"type":"Point","coordinates":[7.345009,50.980474]}}
{"name":"Xandros","category":"software","founded_year":2001,"number_employees":89,"country":"POL","city":"Poznan","address":"ul. Bukowska 352","latitude":52.413065,"longitude":16.827764,"type_company":"Big Company","geopoint":{"type":"Point","coordinates":[16.827764,52.413065]}}
{"name":"Yabb","category":"web","founded_year":1997,"number_employees":80,"country":"GBR","city":"London","address":"7 Carlisle Street","latitude":51.514897,"longitude":-0.13376,"type_company":"Big Company","geopoint":{"type":"Point","coordinates":[-0.13376,51.514897]}}
{"name":"Navara","category":"software","founded_year":2012,"number_employees":80,"country":"NLD","city":"Maarssen","address":"Planetenbaan 26","latitude":52.126616,"longitude":5.038078,"type_company":"Startup","geopoint":{"type":"Point","coordinates":[5.038078,52.126616]}}
{"name":"PrestaShop","category":"software","founded_year":2007,"number_employees":80,"country":"FRA","city":"Levallois-Perret","address":"55 rue Raspail","latitude":48.8687217,"longitude":2.3593849,"type_company":"Big Company","geopoint":{"type":"Point","coordinates":[2.3593849,48.8687217]}}
{"name":"Backbase","category":"software","founded_year":2003,"number_employees":80,"country":"NLD","city":"Amsterdam","address":"Jacob Bontiusplaats 9","latitude":52.3710179,"longitude":4.9277799,"type_company":"Big Company","geopoint":{"type":"Point","coordinates":[4.9277799,52.3710179]}}
{"name":"Eglue Business Technologies","category":"software","founded_year":2001,"number_employees":80,"country":"GBR","city":"London","address":"324\/326 Regent Street","latitude":51.5115309,"longitude":-0.1392765,"type_company":"Big Company","geopoint":{"type":"Point","coordinates":[-0.1392765,51.5115309]}}
{"name":"RadioScape","category":"hardware","founded_year":1996,"number_employees":79,"country":"GBR","city":"London","address":"1 Albany Terrace","latitude":51.5249464,"longitude":-0.1442311,"type_company":"Big Company","geopoint":{"type":"Point","coordinates":[-0.1442311,51.5249464]}}
{"name":"amiando","category":"web","founded_year":2006,"number_employees":76,"country":"DEU","city":"Munich","address":"Sandstrasse 33","latitude":48.124827,"longitude":11.556452,"type_company":"Big Company","geopoint":{"type":"Point","coordinates":[11.556452,48.124827]}}
{"name":"amiando","category":"web","founded_year":2006,"number_employees":76,"country":"GBR","city":"London","address":"Victoria House","latitude":51.5248598,"longitude":-0.0836311,"type_company":"Big Company","geopoint":{"type":"Point","coordinates":[-0.0836311,51.5248598]}}
{"name":"amiando","category":"web","founded_year":2006,"number_employees":76,"country":"FRA","city":"Paris","address":"Le Tank","latitude":48.857993,"longitude":2.381153,"type_company":"Big Company","geopoint":{"type":"Point","coordinates":[2.381153,48.857993]}}
{"name":"LiveWorld","category":"web","founded_year":1996,"number_employees":75,"country":"GBR","city":"London","address":"","latitude":51.500152,"longitude":-0.126236,"type_company":"Big Company","geopoint":{"type":"Point","coordinates":[-0.126236,51.500152]}}
{"name":"Box UK","category":"software","founded_year":1998,"number_employees":75,"country":"GBR","city":"London","address":"One Heddon Street","latitude":51.5107737,"longitude":-0.1392447,"type_company":"Big Company","geopoint":{"type":"Point","coordinates":[-0.1392447,51.5107737]}}
{"name":"cScape","category":"web","founded_year":1996,"number_employees":70,"country":"GBR","city":"London","address":"4 Pear Tree Court","latitude":51.523676,"longitude":-0.107843,"type_company":"Big Company","geopoint":{"type":"Point","coordinates":[-0.107843,51.523676]}}
{"name":"Kewego","category":"games_video","founded_year":2003,"number_employees":65,"country":"FRA","city":"Paris","address":"111, rue Cardinet","latitude":46.227638,"longitude":2.213749,"type_company":"Big Company","geopoint":{"type":"Point","coordinates":[2.213749,46.227638]}}
{"name":"StreamTheWorld","category":"games_video","founded_year":2005,"number_employees":65,"country":"CHE","city":"Lausanne","address":"Rue Centrale 6","latitude":46.5206291,"longitude":6.6328274,"type_company":"Big Company","geopoint":{"type":"Point","coordinates":[6.6328274,46.5206291]}}
{"name":"FireScope","category":"software","founded_year":2006,"number_employees":65,"country":"GBR","city":"London","address":"","latitude":51.5001524,"longitude":-0.1262362,"type_company":"Big Company","geopoint":{"type":"Point","coordinates":[-0.1262362,51.5001524]}}
{"name":"Extend Media","category":"software","founded_year":1991,"number_employees":62,"country":"FRA","city":"Vence","address":"628, chemin de Malbosquet","latitude":43.7129305,"longitude":7.1346567,"type_company":"Big Company","geopoint":{"type":"Point","coordinates":[7.1346567,43.7129305]}}
{"name":"Q-go","category":"software","founded_year":1999,"number_employees":60,"country":"NLD","city":"Diemen","address":"Eekholt 40","latitude":52.329327,"longitude":4.962909,"type_company":"Big Company","geopoint":{"type":"Point","coordinates":[4.962909,52.329327]}}
{"name":"Q-go","category":"software","founded_year":1999,"number_employees":60,"country":"DEU","city":"Zorneding","address":"Obere Bahnhofstrasse 9","latitude":48.086035,"longitude":11.831509,"type_company":"Big Company","geopoint":{"type":"Point","coordinates":[11.831509,48.086035]}}
{"name":"Q-go","category":"software","founded_year":1999,"number_employees":60,"country":"ESP","city":"Barcelona","address":"C\/Angel Guimera 22","latitude":41.396544,"longitude":2.132385,"type_company":"Big Company","geopoint":{"type":"Point","coordinates":[2.132385,41.396544]}}
{"name":"Velneo","category":"software","founded_year":2005,"number_employees":60,"country":"ESP","city":"Vigo","address":"","latitude":42.1638716,"longitude":-8.6105703,"type_company":"Big Company","geopoint":{"type":"Point","coordinates":[-8.6105703,42.1638716]}}
{"name":"Rhapso","category":"software","founded_year":2000,"number_employees":56,"country":"FRA","city":"Palaiseau","address":"24, rue \u00c3\u2030mile Baudot","latitude":48.7191043,"longitude":2.2639015,"type_company":"Big Company","geopoint":{"type":"Point","coordinates":[2.2639015,48.7191043]}}
{"name":"AF83","category":"web","founded_year":2006,"number_employees":55,"country":"FRA","city":"PARIS","address":"15 rue Poissonni\u00c3\u00a8re","latitude":48.862063,"longitude":2.35022,"type_company":"Big Company","geopoint":{"type":"Point","coordinates":[2.35022,48.862063]}}
{"name":"Illumina Digital","category":"games_video","founded_year":1998,"number_employees":55,"country":"GBR","city":"London","address":"Canham Road","latitude":51.503612,"longitude":-0.25628,"type_company":"Big Company","geopoint":{"type":"Point","coordinates":[-0.25628,51.503612]}}
{"name":"alaTest","category":"web","founded_year":2005,"number_employees":50,"country":"SWE","city":"Stockholm","address":"International Consumer Services Sweden AB","latitude":59.3578896,"longitude":18.0670108,"type_company":"Big Company","geopoint":{"type":"Point","coordinates":[18.0670108,59.3578896]}}
{"name":"alaTest","category":"web","founded_year":2005,"number_employees":50,"country":"DEU","city":"Berlin","address":"Friedrichstra\u00dfe 200","latitude":52.5092995,"longitude":13.3900596,"type_company":"Big Company","geopoint":{"type":"Point","coordinates":[13.3900596,52.5092995]}}
{"name":"MakeUseOf","category":"software","founded_year":2006,"number_employees":50,"country":"GBR","city":"Glasgow","address":"32 Saint Vincent Terrace","latitude":55.862878,"longitude":-4.271165,"type_company":"Big Company","geopoint":{"type":"Point","coordinates":[-4.271165,55.862878]}}
{"name":"Next Limit","category":"software","founded_year":1998,"number_employees":50,"country":"ESP","city":"Madrid","address":"\u00c3\u0081ngel Cavero 2","latitude":40.455219,"longitude":-3.650703,"type_company":"Big Company","geopoint":{"type":"Point","coordinates":[-3.650703,40.455219]}}
{"name":"Wahanda","category":"web","founded_year":2008,"number_employees":50,"country":"GBR","city":"London","address":"Floor 4 Great Titchfield House","latitude":41.792265,"longitude":1.996567,"type_company":"Startup","geopoint":{"type":"Point","coordinates":[1.996567,41.792265]}}
{"name":"Nexaweb Technologies","category":"software","founded_year":2000,"number_employees":50,"country":"NLD","city":"Amsterdam","address":"Asterweg 19 D12 - Unit 2","latitude":52.390168,"longitude":4.904251,"type_company":"Big Company","geopoint":{"type":"Point","coordinates":[4.904251,52.390168]}}
{"name":"Nuxeo","category":"software","founded_year":2000,"number_employees":50,"country":"FRA","city":"Paris","address":"18 rue Soleillet","latitude":48.8656319,"longitude":2.392119,"type_company":"Big Company","geopoint":{"type":"Point","coordinates":[2.392119,48.8656319]}}
{"name":"Webedia","category":"web","founded_year":2007,"number_employees":50,"country":"FRA","city":"Paris","address":"","latitude":48.856614,"longitude":2.3522219,"type_company":"Big Company","geopoint":{"type":"Point","coordinates":[2.3522219,48.856614]}}
{"name":"Mandriva","category":"software","founded_year":1998,"number_employees":50,"country":"FRA","city":"Paris","address":"55 boulevard Saint-Martin","latitude":48.8689563,"longitude":2.3558969,"type_company":"Big Company","geopoint":{"type":"Point","coordinates":[2.3558969,48.8689563]}}
{"name":"Green Apple Media","category":"web","founded_year":2007,"number_employees":50,"country":"IRL","city":"Dublin","address":"14 - 16 Lord Edward St","latitude":53.3438298,"longitude":-6.2689465,"type_company":"Big Company","geopoint":{"type":"Point","coordinates":[-6.2689465,53.3438298]}}
{"name":"Stream57","category":"software","founded_year":1998,"number_employees":50,"country":"GBR","city":"London","address":"2 Sheraton Street","latitude":51.5149197,"longitude":-0.1346112,"type_company":"Big Company","geopoint":{"type":"Point","coordinates":[-0.1346112,51.5149197]}}
{"name":"isango!","category":"web","founded_year":2006,"number_employees":50,"country":"GBR","city":"London","address":"48-54 Charlotte Street","latitude":51.519816,"longitude":-0.1361616,"type_company":"Big Company","geopoint":{"type":"Point","coordinates":[-0.1361616,51.519816]}}
{"name":"Testplant","category":"software","founded_year":2008,"number_employees":50,"country":"GBR","city":"London","address":"6 Snow Hill","latitude":51.517356,"longitude":-0.1037742,"type_company":"Startup","geopoint":{"type":"Point","coordinates":[-0.1037742,51.517356]}}
{"name":"Gislen Software","category":"software","founded_year":1994,"number_employees":45,"country":"SWE","city":"Stockholm","address":"Box  3404","latitude":59.6121259,"longitude":17.8947672,"type_company":"Big Company","geopoint":{"type":"Point","coordinates":[17.8947672,59.6121259]}}
{"name":"Zoomix","category":"software","founded_year":2000,"number_employees":45,"country":"GBR","city":"London","address":"Building 3, Chiswick Park","latitude":51.462904,"longitude":-0.263377,"type_company":"Big Company","geopoint":{"type":"Point","coordinates":[-0.263377,51.462904]}}
{"name":"Zeus","category":"software","founded_year":1995,"number_employees":43,"country":"ITA","city":"00134 Roma","address":"Via Michele Lessona, 38","latitude":41.7914948,"longitude":12.5335067,"type_company":"Big Company","geopoint":{"type":"Point","coordinates":[12.5335067,41.7914948]}}
{"name":"Agematis","category":"software","founded_year":2002,"number_employees":40,"country":"FRA","city":"Paris","address":"48 Boulevard des Batignolles","latitude":48.882647,"longitude":2.322551,"type_company":"Big Company","geopoint":{"type":"Point","coordinates":[2.322551,48.882647]}}
{"name":"eYeka","category":"software","founded_year":2006,"number_employees":40,"country":"FRA","city":"Paris","address":"79 rue la Bo\u00e9tie","latitude":48.856667,"longitude":2.350987,"type_company":"Big Company","geopoint":{"type":"Point","coordinates":[2.350987,48.856667]}}
{"name":"H-care","category":"software","founded_year":2005,"number_employees":40,"country":"ITA","city":"Motebelluna","address":"Via San Gaetano, 113","latitude":45.564237,"longitude":12.428383,"type_company":"Big Company","geopoint":{"type":"Point","coordinates":[12.428383,45.564237]}}
{"name":"ITBrix","category":"software","founded_year":2005,"number_employees":40,"country":"GBR","city":"St. Albans Herts","address":"17 Holywell Hill","latitude":51.748219,"longitude":-0.341379,"type_company":"Big Company","geopoint":{"type":"Point","coordinates":[-0.341379,51.748219]}}
{"name":"ITBrix","category":"software","founded_year":2005,"number_employees":40,"country":"BGR","city":"Plovdiv","address":"6, Ravnishta str.","latitude":42.133978,"longitude":24.714267,"type_company":"Big Company","geopoint":{"type":"Point","coordinates":[24.714267,42.133978]}}
{"name":"Owlient","category":"games_video","founded_year":2005,"number_employees":40,"country":"FRA","city":"Paris","address":"26-28 rue de Chamb\u00c3\u00a9ry","latitude":48.8308091,"longitude":2.3032201,"type_company":"Big Company","geopoint":{"type":"Point","coordinates":[2.3032201,48.8308091]}}
{"name":"IntraWorlds","category":"software","founded_year":2002,"number_employees":40,"country":"DEU","city":"Munich","address":"Balanstr. 73","latitude":48.1162965,"longitude":11.6018493,"type_company":"Big Company","geopoint":{"type":"Point","coordinates":[11.6018493,48.1162965]}}
{"name":"IntraWorlds","category":"software","founded_year":2002,"number_employees":40,"country":"GBR","city":"London","address":"35b The Cut","latitude":51.5033235,"longitude":-0.1065563,"type_company":"Big Company","geopoint":{"type":"Point","coordinates":[-0.1065563,51.5033235]}}
{"name":"IntraWorlds","category":"software","founded_year":2002,"number_employees":40,"country":"ESP","city":"Madrid","address":"Fuencarral 93, 1d","latitude":40.426858,"longitude":-3.7015237,"type_company":"Big Company","geopoint":{"type":"Point","coordinates":[-3.7015237,40.426858]}}
{"name":"IntraWorlds","category":"software","founded_year":2002,"number_employees":40,"country":"CZE","city":"Plzen","address":"Teslova 3","latitude":49.7242571,"longitude":13.3335888,"type_company":"Big Company","geopoint":{"type":"Point","coordinates":[13.3335888,49.7242571]}}
{"name":"Corebridge","category":"software","founded_year":2004,"number_employees":36,"country":"GBR","city":"London","address":"170 Piccadilly","latitude":51.5051974,"longitude":-0.1457395,"type_company":"Big Company","geopoint":{"type":"Point","coordinates":[-0.1457395,51.5051974]}}
{"name":"Corebridge","category":"software","founded_year":2004,"number_employees":36,"country":"FRA","city":"75008 Paris","address":"3 rue Saint-Philippe du Roule","latitude":48.8732155,"longitude":2.3088701,"type_company":"Big Company","geopoint":{"type":"Point","coordinates":[2.3088701,48.8732155]}}
{"name":"Netvibes","category":"web","founded_year":2005,"number_employees":35,"country":"FRA","city":"Paris","address":"114, rue Cardinet","latitude":48.870806,"longitude":2.34668,"type_company":"Big Company","geopoint":{"type":"Point","coordinates":[2.34668,48.870806]}}
{"name":"Visuamobile","category":"software","founded_year":2008,"number_employees":35,"country":"FRA","city":"Paris","address":"58, rue du Faubourg Poissonni\u00c3\u00a8re","latitude":48.8691369,"longitude":2.3602202,"type_company":"Startup","geopoint":{"type":"Point","coordinates":[2.3602202,48.8691369]}}
{"name":"mydeco","category":"web","founded_year":2007,"number_employees":35,"country":"GBR","city":"London","address":"Newcombe House","latitude":51.518101,"longitude":-0.468617,"type_company":"Big Company","geopoint":{"type":"Point","coordinates":[-0.468617,51.518101]}}
{"name":"Aria Networks","category":"software","founded_year":2005,"number_employees":35,"country":"GBR","city":"Chippenham","address":"Bath Road","latitude":51.4515283,"longitude":-2.1334555,"type_company":"Big Company","geopoint":{"type":"Point","coordinates":[-2.1334555,51.4515283]}}
{"name":"Teambox","category":"web","founded_year":2009,"number_employees":35,"country":"ESP","city":"Barcelona","address":"Ronda Universitat 31","latitude":41.4063346,"longitude":2.1920231,"type_company":"Startup","geopoint":{"type":"Point","coordinates":[2.1920231,41.4063346]}}
{"name":"FISCAL Technologies","category":"software","founded_year":2002,"number_employees":32,"country":"GBR","city":"READING","address":"10 Beacontree Plaza","latitude":51.4323208,"longitude":-0.9717955,"type_company":"Big Company","geopoint":{"type":"Point","coordinates":[-0.9717955,51.4323208]}}
{"name":"Zemanta","category":"web","founded_year":2007,"number_employees":30,"country":"GBR","city":"London","address":"107 Cheapside","latitude":51.5141566,"longitude":-0.0934254,"type_company":"Big Company","geopoint":{"type":"Point","coordinates":[-0.0934254,51.5141566]}}
{"name":"eRepublik","category":"games_video","founded_year":2007,"number_employees":30,"country":"ESP","city":"Madrid","address":"Almagro 22","latitude":40.43094,"longitude":-3.6952896,"type_company":"Big Company","geopoint":{"type":"Point","coordinates":[-3.6952896,40.43094]}}
{"name":"SYSCOM","category":"software","founded_year":1995,"number_employees":30,"country":"ESP","city":"Las Rozas","address":"Rosa de Lima 1","latitude":40.553845,"longitude":-3.899508,"type_company":"Big Company","geopoint":{"type":"Point","coordinates":[-3.899508,40.553845]}}
{"name":"muzu tv","category":"web","founded_year":2006,"number_employees":30,"country":"IRL","city":"Dublin","address":"19 South William Street","latitude":53.341987,"longitude":-6.262682,"type_company":"Big Company","geopoint":{"type":"Point","coordinates":[-6.262682,53.341987]}}
{"name":"muzu tv","category":"web","founded_year":2006,"number_employees":30,"country":"GBR","city":"London","address":"22 Greek Street","latitude":51.513678,"longitude":-0.13063,"type_company":"Big Company","geopoint":{"type":"Point","coordinates":[-0.13063,51.513678]}}
{"name":"Squiz UK","category":"web","founded_year":2003,"number_employees":30,"country":"GBR","city":"London","address":"109-123 Clifton Street","latitude":51.521603,"longitude":-0.083444,"type_company":"Big Company","geopoint":{"type":"Point","coordinates":[-0.083444,51.521603]}}
{"name":"MetaPack","category":"software","founded_year":1999,"number_employees":30,"country":"GBR","city":"London","address":"12-16 Laystall Street","latitude":51.52216,"longitude":-0.111242,"type_company":"Big Company","geopoint":{"type":"Point","coordinates":[-0.111242,51.52216]}}
{"name":"EdigmaHealthCare","category":"web","founded_year":2007,"number_employees":30,"country":"PRT","city":"Lisbon","address":"Av. da Republica, 49 D","latitude":38.738542,"longitude":-9.146273,"type_company":"Big Company","geopoint":{"type":"Point","coordinates":[-9.146273,38.738542]}}
{"name":"MetaPack","category":"software","founded_year":1999,"number_employees":30,"country":"GBR","city":"London","address":"12-16 Laystall Street","latitude":51.52216,"longitude":-0.111242,"type_company":"Big Company","geopoint":{"type":"Point","coordinates":[-0.111242,51.52216]}}
{"name":"EdigmaHealthCare","category":"web","founded_year":2007,"number_employees":30,"country":"PRT","city":"Lisbon","address":"Av. da Republica, 49 D","latitude":38.738542,"longitude":-9.146273,"type_company":"Big Company","geopoint":{"type":"Point","coordinates":[-9.146273,38.738542]}}
{"name":"Roxen Internet Software","category":"software","founded_year":1994,"number_employees":30,"country":"SWE","city":"Link\u00c3\u00b6ping","address":"St Larsgatan 22A","latitude":58.4119224,"longitude":15.6241345,"type_company":"Big Company","geopoint":{"type":"Point","coordinates":[15.6241345,58.4119224]}}
{"name":"Roxen Internet Software","category":"software","founded_year":1994,"number_employees":30,"country":"SWE","city":"Stockholm","address":"Sveav\u00c3\u00a4gen 98, 5 tr.","latitude":59.3421479,"longitude":18.0573003,"type_company":"Big Company","geopoint":{"type":"Point","coordinates":[18.0573003,59.3421479]}}
{"name":"InfoBuild","category":"software","founded_year":1986,"number_employees":30,"country":"FIN","city":"Espoo","address":"Linnoitustie 4 A","latitude":60.2842964,"longitude":24.8531076,"type_company":"Big Company","geopoint":{"type":"Point","coordinates":[24.8531076,60.2842964]}}
{"name":"InfoBuild","category":"software","founded_year":1986,"number_employees":30,"country":"NOR","city":"Oslo","address":"Stortingsgata 2","latitude":59.9128507,"longitude":10.7392751,"type_company":"Big Company","geopoint":{"type":"Point","coordinates":[10.7392751,59.9128507]}}
{"name":"InfoBuild","category":"software","founded_year":1986,"number_employees":30,"country":"EST","city":"Tallinn","address":"L\u00c3\u00b5\u00c3\u00b5tsa 8","latitude":59.42145,"longitude":24.8021233,"type_company":"Big Company","geopoint":{"type":"Point","coordinates":[24.8021233,59.42145]}}
{"name":"InfoBuild","category":"software","founded_year":1986,"number_employees":30,"country":"LVA","city":"Riga","address":"Elizabetes 2-418","latitude":56.9582533,"longitude":24.1081498,"type_company":"Big Company","geopoint":{"type":"Point","coordinates":[24.1081498,56.9582533]}}
{"name":"InfoBuild","category":"software","founded_year":1986,"number_employees":30,"country":"LTU","city":"Vilnius","address":"Gele\u00c5\u00beinio Vilko g.18A","latitude":54.7126768,"longitude":25.2701999,"type_company":"Big Company","geopoint":{"type":"Point","coordinates":[25.2701999,54.7126768]}}
{"name":"op5","category":"software","founded_year":2003,"number_employees":30,"country":"SWE","city":"Kista","address":"Norgegatan 2","latitude":59.4064174,"longitude":17.9348818,"type_company":"Big Company","geopoint":{"type":"Point","coordinates":[17.9348818,59.4064174]}}
{"name":"Jahia","category":"software","founded_year":2002,"number_employees":30,"country":"CHE","city":"Geneva","address":"9 route des Jeunes","latitude":46.1879541,"longitude":6.1282613,"type_company":"Big Company","geopoint":{"type":"Point","coordinates":[6.1282613,46.1879541]}}
{"name":"Jahia","category":"software","founded_year":2002,"number_employees":30,"country":"FRA","city":"Paris","address":"10 rue d'Hauteville","latitude":48.8739887,"longitude":2.3505241,"type_company":"Big Company","geopoint":{"type":"Point","coordinates":[2.3505241,48.8739887]}}
{"name":"Jahia","category":"software","founded_year":2002,"number_employees":30,"country":"AUT","city":"Klagenfurt","address":"August-Jaksch-Strasse 44","latitude":46.6206889,"longitude":14.2996268,"type_company":"Big Company","geopoint":{"type":"Point","coordinates":[14.2996268,46.6206889]}}
{"name":"Jahia","category":"software","founded_year":2002,"number_employees":30,"country":"DEU","city":"D\u00c3\u00bcsseldorf","address":"Hellweg 58","latitude":51.2292545,"longitude":6.8252196,"type_company":"Big Company","geopoint":{"type":"Point","coordinates":[6.8252196,51.2292545]}}
{"name":"Trackset","category":"software","founded_year":2007,"number_employees":30,"country":"ITA","city":"Pisa","address":"","latitude":43.7161354,"longitude":10.3965843,"type_company":"Big Company","geopoint":{"type":"Point","coordinates":[10.3965843,43.7161354]}}
{"name":"Trackset","category":"software","founded_year":2007,"number_employees":30,"country":"ITA","city":"Milano","address":"","latitude":45.4636889,"longitude":9.1881408,"type_company":"Big Company","geopoint":{"type":"Point","coordinates":[9.1881408,45.4636889]}}
{"name":"Preview Networks","category":"games_video","founded_year":2004,"number_employees":26,"country":"DNK","city":"Copenhagen","address":"Njalsgade 21F","latitude":55.6659813,"longitude":12.5800751,"type_company":"Big Company","geopoint":{"type":"Point","coordinates":[12.5800751,55.6659813]}}
{"name":"ASPgems","category":"software","founded_year":2006,"number_employees":26,"country":"ESP","city":"Madrid","address":"Carrera de San Jeronimo 15","latitude":40.4165967,"longitude":-3.6992667,"type_company":"Big Company","geopoint":{"type":"Point","coordinates":[-3.6992667,40.4165967]}}
{"name":"Advanced Manufacturing Control Systems","category":"hardware","founded_year":2003,"number_employees":26,"country":"IRL","city":"Co. Limerick","address":"Fanningstown","latitude":52.5155,"longitude":-8.44692,"type_company":"Big Company","geopoint":{"type":"Point","coordinates":[-8.44692,52.5155]}}
{"name":"Bluedog","category":"software","founded_year":1998,"number_employees":25,"country":"IRL","city":"Dublin","address":"78 Furze Road","latitude":53.274549,"longitude":-6.215271,"type_company":"Big Company","geopoint":{"type":"Point","coordinates":[-6.215271,53.274549]}}
{"name":"O3Spaces","category":"software","founded_year":2005,"number_employees":25,"country":"NLD","city":"Gouda","address":"Stavorenweg 4,","latitude":52.0259843,"longitude":4.6805473,"type_company":"Big Company","geopoint":{"type":"Point","coordinates":[4.6805473,52.0259843]}}
{"name":"DAEDALUS - Data, Decisions and Language","category":"software","founded_year":1998,"number_employees":25,"country":"ESP","city":"Madrid","address":"Lopez de Hoyos 15","latitude":40.4372542,"longitude":-3.6866654,"type_company":"Big Company","geopoint":{"type":"Point","coordinates":[-3.6866654,40.4372542]}}
{"name":"PowerVote","category":"hardware","founded_year":2006,"number_employees":25,"country":"ESP","city":"Madrid","address":"c\/ Diego de leon, 47","latitude":40.4346935,"longitude":-3.6782829,"type_company":"Big Company","geopoint":{"type":"Point","coordinates":[-3.6782829,40.4346935]}}
{"name":"PowerVote","category":"hardware","founded_year":2006,"number_employees":25,"country":"DEU","city":"Dusseldorf","address":"Leuchtenberger Kirchweg 9A","latitude":51.291863,"longitude":6.7335553,"type_company":"Big Company","geopoint":{"type":"Point","coordinates":[6.7335553,51.291863]}}
{"name":"semanticlabs","category":"software","founded_year":2005,"number_employees":23,"country":"AUT","city":"Vienna","address":"Zollergasse 9-11 \/ Top 10","latitude":48.202758,"longitude":16.354637,"type_company":"Big Company","geopoint":{"type":"Point","coordinates":[16.354637,48.202758]}}
{"name":"Edgeware","category":"hardware","founded_year":2004,"number_employees":22,"country":"SWE","city":"STOCKHOLM","address":"Kungsbron 1, Building F, Floor 7","latitude":59.3326694,"longitude":18.0523253,"type_company":"Big Company","geopoint":{"type":"Point","coordinates":[18.0523253,59.3326694]}}
{"name":"MICROTRONICS","category":"hardware","founded_year":2006,"number_employees":21,"country":"AUT","city":"Ruprechtshofen","address":"Hauptstrasse 7","latitude":48.137693,"longitude":15.278442,"type_company":"Big Company","geopoint":{"type":"Point","coordinates":[15.278442,48.137693]}}
{"name":"GLOBALIS Media Systems","category":"software","founded_year":1997,"number_employees":21,"country":"FRA","city":"PARIS","address":"6 bis rue Auguste VITU","latitude":48.845751,"longitude":2.279071,"type_company":"Big Company","geopoint":{"type":"Point","coordinates":[2.279071,48.845751]}}
{"name":"Logicalware","category":"software","founded_year":2002,"number_employees":20,"country":"GBR","city":"Edinburgh","address":"23 Manor Place","latitude":55.94862,"longitude":-3.215149,"type_company":"Big Company","geopoint":{"type":"Point","coordinates":[-3.215149,55.94862]}}
{"name":"EventElephant","category":"software","founded_year":2008,"number_employees":20,"country":"GBR","city":"Richmond","address":"Parkshott House","latitude":53.335194,"longitude":-6.252923,"type_company":"Startup","geopoint":{"type":"Point","coordinates":[-6.252923,53.335194]}}
{"name":"Retriever Communications","category":"software","founded_year":1996,"number_employees":20,"country":"ITA","city":"Milan","address":"Via Vincenzo Monti","latitude":45.474882,"longitude":9.163918,"type_company":"Big Company","geopoint":{"type":"Point","coordinates":[9.163918,45.474882]}}
{"name":"Open Lab","category":"software","founded_year":2001,"number_employees":20,"country":"ITA","city":"Florence","address":"VIa Brunetti 26a","latitude":43.792231,"longitude":11.271788,"type_company":"Big Company","geopoint":{"type":"Point","coordinates":[11.271788,43.792231]}}
{"name":"VODECLIC","category":"software","founded_year":2007,"number_employees":20,"country":"FRA","city":"Levallois-Perret","address":"36 rue Jules Verne","latitude":48.891986,"longitude":2.319287,"type_company":"Big Company","geopoint":{"type":"Point","coordinates":[2.319287,48.891986]}}
{"name":"Diamantea","category":"software","founded_year":2004,"number_employees":20,"country":"ITA","city":"","address":"Via Vincenzo Giuffrida, 73","latitude":37.5186215,"longitude":15.0916839,"type_company":"Big Company","geopoint":{"type":"Point","coordinates":[15.0916839,37.5186215]}}
{"name":"e-Man","category":"web","founded_year":2000,"number_employees":18,"country":"GBR","city":"London,","address":"57-61 Mortimer Street","latitude":51.517712,"longitude":-0.141022,"type_company":"Big Company","geopoint":{"type":"Point","coordinates":[-0.141022,51.517712]}}
{"name":"Solid State Group","category":"web","founded_year":2002,"number_employees":18,"country":"GBR","city":"London","address":"77 Leonard Street","latitude":51.5246619,"longitude":-0.0830772,"type_company":"Big Company","geopoint":{"type":"Point","coordinates":[-0.0830772,51.5246619]}}
{"name":"Gennio","category":"web","founded_year":2005,"number_employees":18,"country":"ESP","city":"Madrid","address":"Diego de Le\u00c3\u00b3n, 47","latitude":40.4346935,"longitude":-3.6782829,"type_company":"Big Company","geopoint":{"type":"Point","coordinates":[-3.6782829,40.4346935]}}
{"name":"Glaxstar","category":"software","founded_year":2000,"number_employees":17,"country":"GBR","city":"Birmingham","address":"One Victoria Square","latitude":52.479554,"longitude":-1.903186,"type_company":"Big Company","geopoint":{"type":"Point","coordinates":[-1.903186,52.479554]}}
{"name":"Planzone","category":"software","founded_year":2008,"number_employees":17,"country":"FRA","city":"cedex","address":"52 rue Marcel Dassault","latitude":49.5332371,"longitude":2.1346593,"type_company":"Startup","geopoint":{"type":"Point","coordinates":[2.1346593,49.5332371]}}
{"name":"Yendo","category":"software","founded_year":2001,"number_employees":16,"country":"IRL","city":"Dublin","address":"Tyrconnell Park,","latitude":53.337935,"longitude":-6.32868,"type_company":"Big Company","geopoint":{"type":"Point","coordinates":[-6.32868,53.337935]}}
{"name":"Spoonfed","category":"games_video","founded_year":2006,"number_employees":16,"country":"GBR","city":"London","address":"Studio 16","latitude":51.7577453,"longitude":-1.2186724,"type_company":"Big Company","geopoint":{"type":"Point","coordinates":[-1.2186724,51.7577453]}}
{"name":"Neovada","category":"web","founded_year":2008,"number_employees":16,"country":"NOR","city":"Oslo","address":"Karoline Kristiansensvei 2","latitude":59.9137459,"longitude":10.7963809,"type_company":"Startup","geopoint":{"type":"Point","coordinates":[10.7963809,59.9137459]}}
{"name":"Worky","category":"web","founded_year":2008,"number_employees":16,"country":"IRL","city":"Dublin","address":"","latitude":53.344104,"longitude":-6.2674937,"type_company":"Startup","geopoint":{"type":"Point","coordinates":[-6.2674937,53.344104]}}
{"name":"Mirror42","category":"software","founded_year":2004,"number_employees":15,"country":"NLD","city":"Amsterdam","address":"Herengracht 140-2","latitude":52.36702,"longitude":4.896468,"type_company":"Big Company","geopoint":{"type":"Point","coordinates":[4.896468,52.36702]}}
{"name":"Jibes","category":"web","founded_year":2008,"number_employees":15,"country":"NLD","city":"Utrecht","address":"Newtonlaan 115","latitude":52.091381,"longitude":5.148893,"type_company":"Startup","geopoint":{"type":"Point","coordinates":[5.148893,52.091381]}}
{"name":"nextep","category":"software","founded_year":2000,"number_employees":15,"country":"ITA","city":"carmignano di brenta","address":"via spessa 25\/c","latitude":45.629498,"longitude":11.688666,"type_company":"Big Company","geopoint":{"type":"Point","coordinates":[11.688666,45.629498]}}
{"name":"Stupeflix","category":"web","founded_year":2009,"number_employees":15,"country":"FRA","city":"Paris","address":"","latitude":48.8785618,"longitude":2.3603689,"type_company":"Startup","geopoint":{"type":"Point","coordinates":[2.3603689,48.8785618]}}
{"name":"Pilot Systems","category":"software","founded_year":2000,"number_employees":15,"country":"FRA","city":"Paris","address":"9 rue Desargues","latitude":48.8696076,"longitude":2.3763621,"type_company":"Big Company","geopoint":{"type":"Point","coordinates":[2.3763621,48.8696076]}}
{"name":"Emsi Software","category":"software","founded_year":2003,"number_employees":15,"country":"AUT","city":"Thalgau","address":"Mamoosweg 14","latitude":47.86582,"longitude":13.261829,"type_company":"Big Company","geopoint":{"type":"Point","coordinates":[13.261829,47.86582]}}
{"name":"Zankyou","category":"web","founded_year":2008,"number_employees":15,"country":"ESP","city":"Madrid","address":"Faraday 7","latitude":40.6070897,"longitude":-3.6912754,"type_company":"Startup","geopoint":{"type":"Point","coordinates":[-3.6912754,40.6070897]}}
{"name":"Zankyou","category":"web","founded_year":2008,"number_employees":15,"country":"FRA","city":"Levallois Perret","address":"Rue voltaire","latitude":48.8921396,"longitude":2.2847419,"type_company":"Startup","geopoint":{"type":"Point","coordinates":[2.2847419,48.8921396]}}
{"name":"Vae Victis","category":"games_video","founded_year":2007,"number_employees":15,"country":"ITA","city":"Cesena","address":"via Emilia Ponente, 1667","latitude":44.1480034,"longitude":12.2091265,"type_company":"Big Company","geopoint":{"type":"Point","coordinates":[12.2091265,44.1480034]}}
{"name":"A2B Office Technology","category":"hardware","founded_year":1991,"number_employees":15,"country":"GBR","city":"Bury","address":"PO Box 444","latitude":53.5870714,"longitude":-2.3230453,"type_company":"Big Company","geopoint":{"type":"Point","coordinates":[-2.3230453,53.5870714]}}
{"name":"Enternships","category":"web","founded_year":2009,"number_employees":15,"country":"GBR","city":"London","address":"5th Floor","latitude":51.5215279,"longitude":-0.1038219,"type_company":"Startup","geopoint":{"type":"Point","coordinates":[-0.1038219,51.5215279]}}
{"name":"Jalios","category":"software","founded_year":2001,"number_employees":15,"country":"FRA","city":"Le Chesnay","address":"58 rue Pottier","latitude":48.8278444,"longitude":2.1255025,"type_company":"Big Company","geopoint":{"type":"Point","coordinates":[2.1255025,48.8278444]}}
{"name":"KeyVision","category":"software","founded_year":2007,"number_employees":14,"country":"ITA","city":"Monza (MI)","address":"Via Nino Bixio 1","latitude":45.587212,"longitude":9.285378,"type_company":"Big Company","geopoint":{"type":"Point","coordinates":[9.285378,45.587212]}}
{"name":"Advorto","category":"software","founded_year":1998,"number_employees":14,"country":"GBR","city":"London","address":"1st Floor, Holborn Gate,","latitude":51.500395,"longitude":-0.083743,"type_company":"Big Company","geopoint":{"type":"Point","coordinates":[-0.083743,51.500395]}}
{"name":"Wuala","category":"software","founded_year":2007,"number_employees":14,"country":"CHE","city":"Zurich","address":"K\u00f6chlistrasse 15","latitude":47.384199,"longitude":8.492452,"type_company":"Big Company","geopoint":{"type":"Point","coordinates":[8.492452,47.384199]}}
{"name":"AtelMedia","category":"software","founded_year":2006,"number_employees":13,"country":"ESP","city":"Madrid","address":"","latitude":40.416741,"longitude":-3.70325,"type_company":"Big Company","geopoint":{"type":"Point","coordinates":[-3.70325,40.416741]}}
{"name":"AtelMedia","category":"software","founded_year":2006,"number_employees":13,"country":"ESP","city":"Sevilla","address":"","latitude":37.38264,"longitude":-5.996295,"type_company":"Big Company","geopoint":{"type":"Point","coordinates":[-5.996295,37.38264]}}
{"name":"AtelMedia","category":"software","founded_year":2006,"number_employees":13,"country":"ESP","city":"Alicante","address":"","latitude":38.346041,"longitude":-0.484756,"type_company":"Big Company","geopoint":{"type":"Point","coordinates":[-0.484756,38.346041]}}
{"name":"AtelMedia","category":"software","founded_year":2006,"number_employees":13,"country":"ESP","city":"C\u00c3\u00b3rdoba","address":"","latitude":37.884727,"longitude":-4.779152,"type_company":"Big Company","geopoint":{"type":"Point","coordinates":[-4.779152,37.884727]}}
{"name":"Skinkers","category":"software","founded_year":1999,"number_employees":12,"country":"GBR","city":"London","address":"28-30 Kirby Street","latitude":51.604922,"longitude":0.239866,"type_company":"Big Company","geopoint":{"type":"Point","coordinates":[0.239866,51.604922]}}
{"name":"TheWebService","category":"web","founded_year":2008,"number_employees":12,"country":"GBR","city":"Worcester","address":"Moseley Road","latitude":52.232349,"longitude":-2.26681,"type_company":"Startup","geopoint":{"type":"Point","coordinates":[-2.26681,52.232349]}}
{"name":"Mexuar Communications","category":"software","founded_year":2005,"number_employees":12,"country":"GBR","city":"Manchester","address":"Unit 6 Mercury Way","latitude":53.465082,"longitude":-2.335605,"type_company":"Big Company","geopoint":{"type":"Point","coordinates":[-2.335605,53.465082]}}
{"name":"TheWebService","category":"web","founded_year":2008,"number_employees":12,"country":"GBR","city":"Worcester","address":"Moseley Road","latitude":52.232349,"longitude":-2.26681,"type_company":"Startup","geopoint":{"type":"Point","coordinates":[-2.26681,52.232349]}}
{"name":"Mexuar Communications","category":"software","founded_year":2005,"number_employees":12,"country":"GBR","city":"Manchester","address":"Unit 6 Mercury Way","latitude":53.465082,"longitude":-2.335605,"type_company":"Big Company","geopoint":{"type":"Point","coordinates":[-2.335605,53.465082]}}
{"name":"DigitalDeejay","category":"games_video","founded_year":2005,"number_employees":12,"country":"FRA","city":"CALUIRE ET CUIRE","address":"19 MONTEE DE L EGLISE","latitude":45.792717,"longitude":4.830048,"type_company":"Big Company","geopoint":{"type":"Point","coordinates":[4.830048,45.792717]}}
{"name":"Citizenside","category":"games_video","founded_year":2006,"number_employees":12,"country":"FRA","city":"Paris","address":"Level 5","latitude":48.8926988,"longitude":2.3179601,"type_company":"Big Company","geopoint":{"type":"Point","coordinates":[2.3179601,48.8926988]}}
{"name":"aladom","category":"web","founded_year":2008,"number_employees":12,"country":"FRA","city":"Rennes","address":"5 quai de la pr\u00e9valaye","latitude":48.110933,"longitude":-1.6806152,"type_company":"Startup","geopoint":{"type":"Point","coordinates":[-1.6806152,48.110933]}}
{"name":"Socialwrks","category":"software","founded_year":2005,"number_employees":12,"country":"GBR","city":"Guildford","address":"40 Occam Rd","latitude":51.2402584,"longitude":-0.6126472,"type_company":"Big Company","geopoint":{"type":"Point","coordinates":[-0.6126472,51.2402584]}}
{"name":"FreshNetworks","category":"software","founded_year":2007,"number_employees":12,"country":"GBR","city":"London","address":"229-231 High Holborn","latitude":51.5178123,"longitude":-0.11796,"type_company":"Big Company","geopoint":{"type":"Point","coordinates":[-0.11796,51.5178123]}}
{"name":"ISID","category":"software","founded_year":1996,"number_employees":12,"country":"ESP","city":"Madrid","address":"Calle Serano 77","latitude":40.4353746,"longitude":-3.686534,"type_company":"Big Company","geopoint":{"type":"Point","coordinates":[-3.686534,40.4353746]}}
{"name":"Verisim","category":"software","founded_year":2001,"number_employees":12,"country":"GBR","city":"Edinburgh","address":"4 Redheughs Rigg","latitude":55.934152,"longitude":-3.3090825,"type_company":"Big Company","geopoint":{"type":"Point","coordinates":[-3.3090825,55.934152]}}
{"name":"Garlik","category":"software","founded_year":2005,"number_employees":12,"country":"GBR","city":"Richmond","address":"2, Sheen Road","latitude":51.462108,"longitude":-0.295441,"type_company":"Big Company","geopoint":{"type":"Point","coordinates":[-0.295441,51.462108]}}
{"name":"Gastrogate","category":"web","founded_year":1999,"number_employees":12,"country":"SWE","city":"V\u00c3\u00a4ster\u00c3\u00a5s","address":"Hylsv\u00c3\u00a4gen 4","latitude":59.617364,"longitude":16.5595393,"type_company":"Big Company","geopoint":{"type":"Point","coordinates":[16.5595393,59.617364]}}
{"name":"Clowdy","category":"web","founded_year":2013,"number_employees":11,"country":"GBR","city":"Manchester","address":"3rd Floor, The Corn Exchange, Exchange Square","latitude":53.4837067,"longitude":-2.2439492,"type_company":"Startup","geopoint":{"type":"Point","coordinates":[-2.2439492,53.4837067]}}
{"name":"Zensify","category":"web","founded_year":2006,"number_employees":11,"country":"GBR","city":"London","address":"123 Buckingham Palace Road","latitude":51.4940757,"longitude":-0.146659,"type_company":"Big Company","geopoint":{"type":"Point","coordinates":[-0.146659,51.4940757]}}
{"name":"Bragster","category":"web","founded_year":2007,"number_employees":10,"country":"GBR","city":"London","address":"4 Elder Street","latitude":51.5220072,"longitude":-0.0766034,"type_company":"Big Company","geopoint":{"type":"Point","coordinates":[-0.0766034,51.5220072]}}
{"name":"RankOne Media Group","category":"web","founded_year":2002,"number_employees":10,"country":"NLD","city":"Amsterdam","address":"Herengracht 498","latitude":52.365001,"longitude":4.892903,"type_company":"Big Company","geopoint":{"type":"Point","coordinates":[4.892903,52.365001]}}
{"name":"Moviestorm","category":"software","founded_year":2005,"number_employees":10,"country":"GBR","city":"Cambridge","address":"24 Cambridge Place","latitude":52.197471,"longitude":0.130588,"type_company":"Big Company","geopoint":{"type":"Point","coordinates":[0.130588,52.197471]}}
{"name":"Gameware Development","category":"software","founded_year":2003,"number_employees":10,"country":"GBR","city":"Cambridge","address":"25 City Road","latitude":52.205194,"longitude":0.130733,"type_company":"Big Company","geopoint":{"type":"Point","coordinates":[0.130733,52.205194]}}
{"name":"SquareClock","category":"web","founded_year":2007,"number_employees":10,"country":"FRA","city":"Asnieres sur seine","address":"7 rue Jean Dutilloya","latitude":48.9064804,"longitude":2.2860418,"type_company":"Big Company","geopoint":{"type":"Point","coordinates":[2.2860418,48.9064804]}}
{"name":"Hoteliers","category":"web","founded_year":2005,"number_employees":10,"country":"NLD","city":"Amsterdam","address":"Jollemanhof 152","latitude":52.376792,"longitude":4.920582,"type_company":"Big Company","geopoint":{"type":"Point","coordinates":[4.920582,52.376792]}}
{"name":"e-contratos","category":"web","founded_year":2003,"number_employees":10,"country":"ESP","city":"Valencia","address":"Periodista Azzati, 5. 3, 6B","latitude":39.469301,"longitude":-0.377068,"type_company":"Big Company","geopoint":{"type":"Point","coordinates":[-0.377068,39.469301]}}
{"name":"YOOWALK","category":"games_video","founded_year":2006,"number_employees":10,"country":"FRA","city":"Paris","address":"28 rue Fr\u00c3\u00a9micourt","latitude":48.8475487,"longitude":2.2992348,"type_company":"Big Company","geopoint":{"type":"Point","coordinates":[2.2992348,48.8475487]}}
{"name":"The Tin","category":"web","founded_year":2001,"number_employees":10,"country":"GBR","city":"London","address":"24-28a Hatton Wall","latitude":51.52129,"longitude":-0.10978,"type_company":"Big Company","geopoint":{"type":"Point","coordinates":[-0.10978,51.52129]}}
{"name":"Doodle","category":"web","founded_year":2007,"number_employees":10,"country":"CHE","city":"Zurich","address":"Werdstr. 21","latitude":47.389909,"longitude":8.516049,"type_company":"Big Company","geopoint":{"type":"Point","coordinates":[8.516049,47.389909]}}
{"name":"Nedforce","category":"software","founded_year":1998,"number_employees":10,"country":"NLD","city":"Enschede","address":"Rigtersbleek-Zandvoort 10-113","latitude":52.2227273,"longitude":6.8719412,"type_company":"Big Company","geopoint":{"type":"Point","coordinates":[6.8719412,52.2227273]}}
{"name":"Aventure Media","category":"web","founded_year":2003,"number_employees":10,"country":"GBR","city":"Belfast","address":"The Mount","latitude":54.649575,"longitude":-5.919693,"type_company":"Big Company","geopoint":{"type":"Point","coordinates":[-5.919693,54.649575]}}
{"name":"Dooit","category":"software","founded_year":2008,"number_employees":10,"country":"ITA","city":"Treviso","address":"","latitude":45.657409,"longitude":12.22861,"type_company":"Startup","geopoint":{"type":"Point","coordinates":[12.22861,45.657409]}}
{"name":"Nedforce","category":"software","founded_year":1998,"number_employees":10,"country":"NLD","city":"Enschede","address":"Rigtersbleek-Zandvoort 10-113","latitude":52.2227273,"longitude":6.8719412,"type_company":"Big Company","geopoint":{"type":"Point","coordinates":[6.8719412,52.2227273]}}
{"name":"Aventure Media","category":"web","founded_year":2003,"number_employees":10,"country":"GBR","city":"Belfast","address":"The Mount","latitude":54.649575,"longitude":-5.919693,"type_company":"Big Company","geopoint":{"type":"Point","coordinates":[-5.919693,54.649575]}}
{"name":"Dooit","category":"software","founded_year":2008,"number_employees":10,"country":"ITA","city":"Treviso","address":"","latitude":45.657409,"longitude":12.22861,"type_company":"Startup","geopoint":{"type":"Point","coordinates":[12.22861,45.657409]}}
{"name":"Roomex","category":"software","founded_year":2006,"number_employees":10,"country":"IRL","city":"Dublin","address":"Unit D10 Nutgrove Office Park","latitude":53.308258,"longitude":-6.238443,"type_company":"Big Company","geopoint":{"type":"Point","coordinates":[-6.238443,53.308258]}}
{"name":"Calameo","category":"web","founded_year":2008,"number_employees":10,"country":"FRA","city":"Paris","address":"25 rue de Ponthieu","latitude":48.871174,"longitude":2.308019,"type_company":"Startup","geopoint":{"type":"Point","coordinates":[2.308019,48.871174]}}
{"name":"WiredRed","category":"software","founded_year":1998,"number_employees":10,"country":"GBR","city":"Chichester","address":"1 Old Market Avenue","latitude":50.833935,"longitude":-0.779497,"type_company":"Big Company","geopoint":{"type":"Point","coordinates":[-0.779497,50.833935]}}
{"name":"Twin Pines","category":"web","founded_year":2005,"number_employees":10,"country":"SWE","city":"Borl\u00c3\u00a4nge","address":"","latitude":60.485605,"longitude":15.436302,"type_company":"Big Company","geopoint":{"type":"Point","coordinates":[15.436302,60.485605]}}
{"name":"Twin Pines","category":"web","founded_year":2005,"number_employees":10,"country":"SWE","city":"Stockholm","address":"","latitude":59.332788,"longitude":18.064488,"type_company":"Big Company","geopoint":{"type":"Point","coordinates":[18.064488,59.332788]}}
{"name":"Pierlis","category":"software","founded_year":2006,"number_employees":10,"country":"FRA","city":"Paris","address":"8 rue des Messageries","latitude":48.8762407,"longitude":2.3503689,"type_company":"Big Company","geopoint":{"type":"Point","coordinates":[2.3503689,48.8762407]}}
{"name":"iViioo","category":"games_video","founded_year":2007,"number_employees":10,"country":"SWE","city":"Stockholm","address":"","latitude":59.3327881,"longitude":18.0644881,"type_company":"Big Company","geopoint":{"type":"Point","coordinates":[18.0644881,59.3327881]}}
{"name":"Webzzle","category":"web","founded_year":2008,"number_employees":10,"country":"FRA","city":"Paris","address":"","latitude":43.1677247,"longitude":0.4198481,"type_company":"Startup","geopoint":{"type":"Point","coordinates":[0.4198481,43.1677247]}}
{"name":"Filmed Media","category":"games_video","founded_year":2008,"number_employees":10,"country":"GBR","city":"London","address":"58 Salusbury Road","latitude":51.5359008,"longitude":-0.2055081,"type_company":"Startup","geopoint":{"type":"Point","coordinates":[-0.2055081,51.5359008]}}
{"name":"NetAsturias Internet","category":"web","founded_year":2001,"number_employees":10,"country":"ESP","city":"Infiesto (Asturias)","address":"Covadonga 12","latitude":43.3459015,"longitude":-5.36175,"type_company":"Big Company","geopoint":{"type":"Point","coordinates":[-5.36175,43.3459015]}}
{"name":"PersonAll","category":"software","founded_year":2007,"number_employees":10,"country":"FRA","city":"Saint-Maur","address":"27-31 av du port au fouarre","latitude":48.7900014,"longitude":2.4772506,"type_company":"Big Company","geopoint":{"type":"Point","coordinates":[2.4772506,48.7900014]}}
{"name":"SAMP2","category":"games_video","founded_year":2008,"number_employees":10,"country":"NLD","city":"Bilthoven","address":"van Goijenlaan 45","latitude":52.1424695,"longitude":5.2092075,"type_company":"Startup","geopoint":{"type":"Point","coordinates":[5.2092075,52.1424695]}}
{"name":"Emoshape","category":"software","founded_year":2007,"number_employees":10,"country":"GBR","city":"London","address":"C\/O DEREK ROTHERA & COMPANY UNITS 15 & 16","latitude":51.5123833,"longitude":-0.1158832,"type_company":"Big Company","geopoint":{"type":"Point","coordinates":[-0.1158832,51.5123833]}}
{"name":"Concrete","category":"software","founded_year":2003,"number_employees":10,"country":"GBR","city":"London","address":"9 Northburgh Street","latitude":51.5232255,"longitude":-0.1010535,"type_company":"Big Company","geopoint":{"type":"Point","coordinates":[-0.1010535,51.5232255]}}
{"name":"Antelink","category":"software","founded_year":2009,"number_employees":10,"country":"FRA","city":"Paris 10\u00c3\u00a8me","address":"18 rue Yves Toudic","latitude":48.8524775,"longitude":2.3660117,"type_company":"Startup","geopoint":{"type":"Point","coordinates":[2.3660117,48.8524775]}}
{"name":"Zookel","category":"web","founded_year":2008,"number_employees":10,"country":"GBR","city":"London","address":"33-37 Charterhouse Sq.","latitude":51.5203268,"longitude":-0.0994596,"type_company":"Startup","geopoint":{"type":"Point","coordinates":[-0.0994596,51.5203268]}}
{"name":"Bar Exchange","category":"web","founded_year":2009,"number_employees":10,"country":"GBR","city":"London","address":"35 Ballards Lane","latitude":51.5395914,"longitude":-0.1525048,"type_company":"Startup","geopoint":{"type":"Point","coordinates":[-0.1525048,51.5395914]}}
{"name":"Ykone","category":"web","founded_year":2009,"number_employees":10,"country":"FRA","city":"Paris","address":"","latitude":48.8566667,"longitude":2.3509871,"type_company":"Startup","geopoint":{"type":"Point","coordinates":[2.3509871,48.8566667]}}
{"name":"Rabbit Technologies","category":"software","founded_year":2007,"number_employees":10,"country":"GBR","city":"London","address":"First Floor Office","latitude":51.55738,"longitude":-0.27548,"type_company":"Big Company","geopoint":{"type":"Point","coordinates":[-0.27548,51.55738]}}
{"name":"B32TRUST","category":"software","founded_year":2008,"number_employees":10,"country":"FRA","city":"Paris","address":"","latitude":48.8566667,"longitude":2.3509871,"type_company":"Startup","geopoint":{"type":"Point","coordinates":[2.3509871,48.8566667]}}
{"name":"DSwiss","category":"web","founded_year":2008,"number_employees":10,"country":"CHE","city":"Z\u00c3\u00bcrich","address":"Badenerstrasse 281","latitude":47.376362,"longitude":8.5142125,"type_company":"Startup","geopoint":{"type":"Point","coordinates":[8.5142125,47.376362]}}
{"name":"PubliAtis","category":"software","founded_year":2006,"number_employees":10,"country":"FRA","city":"PARIS","address":"36 rue Vivienne","latitude":48.8699947,"longitude":2.3406954,"type_company":"Big Company","geopoint":{"type":"Point","coordinates":[2.3406954,48.8699947]}}
{"name":"Jalbum","category":"software","founded_year":2006,"number_employees":9,"country":"SWE","city":"Stockholm","address":"Gumshornsgatan 9","latitude":59.335897,"longitude":18.08897,"type_company":"Big Company","geopoint":{"type":"Point","coordinates":[18.08897,59.335897]}}
{"name":"VideoMark","category":"web","founded_year":2007,"number_employees":9,"country":"FRA","city":"Paris","address":"54 rue Ren\u00c3\u00a9 Boulanger","latitude":48.8687217,"longitude":2.3593849,"type_company":"Big Company","geopoint":{"type":"Point","coordinates":[2.3593849,48.8687217]}}
{"name":"Pro2col","category":"software","founded_year":2003,"number_employees":9,"country":"GBR","city":"Bournemouth","address":"146 Tuckton Road","latitude":50.72667,"longitude":-1.798915,"type_company":"Big Company","geopoint":{"type":"Point","coordinates":[-1.798915,50.72667]}}
{"name":"Pro2col","category":"software","founded_year":2003,"number_employees":9,"country":"DEU","city":"Mannheim","address":"Trierer Str. 17","latitude":49.5077097,"longitude":8.5230082,"type_company":"Big Company","geopoint":{"type":"Point","coordinates":[8.5230082,49.5077097]}}
{"name":"Wakoopa","category":"web","founded_year":2007,"number_employees":8,"country":"NLD","city":"Amsterdam","address":"Damrak 70, 254","latitude":52.3745228,"longitude":4.8948623,"type_company":"Big Company","geopoint":{"type":"Point","coordinates":[4.8948623,52.3745228]}}
{"name":"EMOB","category":"games_video","founded_year":2005,"number_employees":8,"country":"FRA","city":"Toulon","address":"195 rue Jean Jaures","latitude":43.124351,"longitude":5.929313,"type_company":"Big Company","geopoint":{"type":"Point","coordinates":[5.929313,43.124351]}}
{"name":"XIHA","category":"games_video","founded_year":2007,"number_employees":8,"country":"FIN","city":"Helsinki","address":"Mannerheimintie 12 B","latitude":60.1681494,"longitude":24.9410012,"type_company":"Big Company","geopoint":{"type":"Point","coordinates":[24.9410012,60.1681494]}}
{"name":"School of Everything","category":"web","founded_year":2007,"number_employees":8,"country":"GBR","city":"London","address":"18 Victoria Park Square","latitude":51.528817,"longitude":-0.053981,"type_company":"Big Company","geopoint":{"type":"Point","coordinates":[-0.053981,51.528817]}}
{"name":"DutchSoftware","category":"software","founded_year":2001,"number_employees":8,"country":"NLD","city":"Krommenie","address":"Zuiderhoofdstraat 151","latitude":52.498939,"longitude":4.768427,"type_company":"Big Company","geopoint":{"type":"Point","coordinates":[4.768427,52.498939]}}
{"name":"Mixcloud","category":"games_video","founded_year":2008,"number_employees":8,"country":"GBR","city":"London","address":"Tabernacle Street","latitude":51.5399105,"longitude":-0.2859795,"type_company":"Startup","geopoint":{"type":"Point","coordinates":[-0.2859795,51.5399105]}}
{"name":"Wevod","category":"games_video","founded_year":2006,"number_employees":8,"country":"FRA","city":"Paris","address":"97 rue du Cherche Midi","latitude":48.846726,"longitude":2.321213,"type_company":"Big Company","geopoint":{"type":"Point","coordinates":[2.321213,48.846726]}}
{"name":"Wevod","category":"games_video","founded_year":2006,"number_employees":8,"country":"FRA","city":"Paris","address":"97 rue du Cherche Midi","latitude":48.846726,"longitude":2.321213,"type_company":"Big Company","geopoint":{"type":"Point","coordinates":[2.321213,48.846726]}}
{"name":"infoFACTORY","category":"web","founded_year":2004,"number_employees":8,"country":"ITA","city":"Udine","address":"via Linussio 51","latitude":46.015432,"longitude":13.265559,"type_company":"Big Company","geopoint":{"type":"Point","coordinates":[13.265559,46.015432]}}
{"name":"MadWaves","category":"games_video","founded_year":1998,"number_employees":8,"country":"FRA","city":"Sophia Antipolis","address":"1 Traverse des Brucs","latitude":43.6273729,"longitude":7.0524451,"type_company":"Big Company","geopoint":{"type":"Point","coordinates":[7.0524451,43.6273729]}}
{"name":"Zeraphina","category":"web","founded_year":2002,"number_employees":8,"country":"IRL","city":"Dublin","address":"40 The Mews","latitude":53.4445927,"longitude":-6.1345865,"type_company":"Big Company","geopoint":{"type":"Point","coordinates":[-6.1345865,53.4445927]}}
{"name":"Demotix","category":"web","founded_year":2008,"number_employees":8,"country":"GBR","city":"London","address":"111 Salusbury Road","latitude":51.5374249,"longitude":-0.2065907,"type_company":"Startup","geopoint":{"type":"Point","coordinates":[-0.2065907,51.5374249]}}
{"name":"timetotrade","category":"web","founded_year":2006,"number_employees":8,"country":"GBR","city":"Brighton","address":"Marine Square Mews","latitude":50.8189967,"longitude":-0.1262241,"type_company":"Big Company","geopoint":{"type":"Point","coordinates":[-0.1262241,50.8189967]}}
{"name":"upad","category":"web","founded_year":2008,"number_employees":8,"country":"GBR","city":"London","address":"104 Tennyson Road","latitude":51.5382894,"longitude":-0.2023958,"type_company":"Startup","geopoint":{"type":"Point","coordinates":[-0.2023958,51.5382894]}}
{"name":"Owngig","category":"games_video","founded_year":2008,"number_employees":8,"country":"GBR","city":"London","address":"1&2 Barley Shotts","latitude":39.39615,"longitude":22.76303,"type_company":"Startup","geopoint":{"type":"Point","coordinates":[22.76303,39.39615]}}
{"name":"VISup","category":"software","founded_year":2007,"number_employees":8,"country":"ITA","city":"MILANO","address":"via Archimede, 45","latitude":45.4650967,"longitude":9.2114266,"type_company":"Big Company","geopoint":{"type":"Point","coordinates":[9.2114266,45.4650967]}}
{"name":"Devolia","category":"web","founded_year":2005,"number_employees":7,"country":"FRA","city":"Paris","address":"21 boulevard de Sebastopol","latitude":48.859648,"longitude":2.348855,"type_company":"Big Company","geopoint":{"type":"Point","coordinates":[2.348855,48.859648]}}
{"name":"Franson Technology AB","category":"software","founded_year":2004,"number_employees":7,"country":"SWE","city":"Stockholm","address":"Sveav\u00c3\u00a4gen 98","latitude":59.342079,"longitude":18.057102,"type_company":"Big Company","geopoint":{"type":"Point","coordinates":[18.057102,59.342079]}}
{"name":"PCIQ","category":"web","founded_year":2006,"number_employees":7,"country":"GBR","city":"London","address":"142 Charing Cross Road","latitude":51.515374,"longitude":-0.130109,"type_company":"Big Company","geopoint":{"type":"Point","coordinates":[-0.130109,51.515374]}}
{"name":"iKlax Media","category":"software","founded_year":2008,"number_employees":7,"country":"FRA","city":"BIDART","address":"Izarbel Technopolis","latitude":43.4477272,"longitude":-1.5555799,"type_company":"Startup","geopoint":{"type":"Point","coordinates":[-1.5555799,43.4477272]}}
{"name":"The Game Creators","category":"games_video","founded_year":1999,"number_employees":7,"country":"GBR","city":"Macclesfiled, Cheshire","address":"4 Nancy View","latitude":53.296176,"longitude":-2.092073,"type_company":"Big Company","geopoint":{"type":"Point","coordinates":[-2.092073,53.296176]}}
{"name":"SupplierSelect","category":"web","founded_year":2005,"number_employees":7,"country":"GBR","city":"London","address":"21 Hanover Street","latitude":51.5137321,"longitude":-0.1427993,"type_company":"Big Company","geopoint":{"type":"Point","coordinates":[-0.1427993,51.5137321]}}
{"name":"Did it Leak","category":"games_video","founded_year":2007,"number_employees":7,"country":"GBR","city":"Belfast","address":"","latitude":54.5972686,"longitude":-5.9301088,"type_company":"Big Company","geopoint":{"type":"Point","coordinates":[-5.9301088,54.5972686]}}
{"name":"AllYearbooks","category":"web","founded_year":2004,"number_employees":7,"country":"GBR","city":"Cambridge","address":"86 St Barnabas Road","latitude":52.1992891,"longitude":0.1380852,"type_company":"Big Company","geopoint":{"type":"Point","coordinates":[0.1380852,52.1992891]}}
{"name":"ftopia","category":"software","founded_year":2009,"number_employees":7,"country":"FRA","city":"Paris","address":"8 rue Victor Mass\u00e9","latitude":53.3328144,"longitude":-6.2493777,"type_company":"Startup","geopoint":{"type":"Point","coordinates":[-6.2493777,53.3328144]}}
{"name":"VisitorNetworks","category":"hardware","founded_year":2006,"number_employees":6,"country":"GBR","city":"Manchester","address":"58 Elm Drive","latitude":53.443183,"longitude":-2.318142,"type_company":"Big Company","geopoint":{"type":"Point","coordinates":[-2.318142,53.443183]}}
{"name":"Royalquiz","category":"web","founded_year":2007,"number_employees":6,"country":"SWE","city":"Stockholm","address":"Dalagatan 7","latitude":59.336969,"longitude":18.050035,"type_company":"Big Company","geopoint":{"type":"Point","coordinates":[18.050035,59.336969]}}
{"name":"Dreamsoft Technologies","category":"software","founded_year":2007,"number_employees":6,"country":"GBR","city":"","address":"Rochdale","latitude":53.616352,"longitude":-2.15871,"type_company":"Big Company","geopoint":{"type":"Point","coordinates":[-2.15871,53.616352]}}
{"name":"Cassiber","category":"web","founded_year":2007,"number_employees":6,"country":"CHE","city":"Zurich","address":"Technoparkstrasse 1","latitude":47.389909,"longitude":8.516049,"type_company":"Big Company","geopoint":{"type":"Point","coordinates":[8.516049,47.389909]}}
{"name":"LOG607","category":"games_video","founded_year":2007,"number_employees":6,"country":"ITA","city":"Roncade TV","address":"Via Sile 41","latitude":45.564209,"longitude":12.436354,"type_company":"Big Company","geopoint":{"type":"Point","coordinates":[12.436354,45.564209]}}
{"name":"Ideavity","category":"web","founded_year":2006,"number_employees":6,"country":"PRT","city":"Porto","address":"Praceta Guilherme Gomes Fernandes","latitude":41.147536,"longitude":-8.614826,"type_company":"Big Company","geopoint":{"type":"Point","coordinates":[-8.614826,41.147536]}}
{"name":"pomeloTV","category":"software","founded_year":2007,"number_employees":6,"country":"ESP","city":"Madrid","address":"Marques de Monteagudo,18","latitude":40.4367771,"longitude":-3.6685036,"type_company":"Big Company","geopoint":{"type":"Point","coordinates":[-3.6685036,40.4367771]}}
{"name":"Striker Manager","category":"software","founded_year":2007,"number_employees":6,"country":"ESP","city":"Barcelona","address":"Llacuna 162","latitude":41.4063346,"longitude":2.1920231,"type_company":"Big Company","geopoint":{"type":"Point","coordinates":[2.1920231,41.4063346]}}
{"name":"The Big Domain","category":"web","founded_year":2003,"number_employees":6,"country":"GBR","city":"Bideford","address":"Brigade House","latitude":50.0482095,"longitude":-5.2738154,"type_company":"Big Company","geopoint":{"type":"Point","coordinates":[-5.2738154,50.0482095]}}
{"name":"Expono","category":"web","founded_year":2007,"number_employees":6,"country":"NOR","city":"Oslo","address":"","latitude":59.9138204,"longitude":10.7387413,"type_company":"Big Company","geopoint":{"type":"Point","coordinates":[10.7387413,59.9138204]}}
{"name":"Lipperhey","category":"software","founded_year":2009,"number_employees":6,"country":"NLD","city":"Amsterdam","address":"Timorplein 42","latitude":52.3655578,"longitude":4.9345824,"type_company":"Startup","geopoint":{"type":"Point","coordinates":[4.9345824,52.3655578]}}
{"name":"I6NET","category":"software","founded_year":2002,"number_employees":6,"country":"ESP","city":"Madrid","address":"C\/ Magallanes, 13","latitude":40.4342873,"longitude":-3.7056763,"type_company":"Big Company","geopoint":{"type":"Point","coordinates":[-3.7056763,40.4342873]}}
{"name":"WorldTV","category":"games_video","founded_year":2006,"number_employees":5,"country":"IRL","city":"Limerick","address":"","latitude":52.6638571,"longitude":-8.6267726,"type_company":"Big Company","geopoint":{"type":"Point","coordinates":[-8.6267726,52.6638571]}}
{"name":"WorldTV","category":"games_video","founded_year":2006,"number_employees":5,"country":"GBR","city":"London","address":"","latitude":51.5001524,"longitude":-0.1262362,"type_company":"Big Company","geopoint":{"type":"Point","coordinates":[-0.1262362,51.5001524]}}
{"name":"Poodz","category":"web","founded_year":2008,"number_employees":5,"country":"FRA","city":"Roubaix","address":"5 rue Blanchemaille","latitude":50.694712,"longitude":3.165225,"type_company":"Startup","geopoint":{"type":"Point","coordinates":[3.165225,50.694712]}}
{"name":"Myminutes","category":"web","founded_year":2007,"number_employees":5,"country":"ITA","city":"Turin","address":"via fidia 26","latitude":45.072106,"longitude":7.621495,"type_company":"Big Company","geopoint":{"type":"Point","coordinates":[7.621495,45.072106]}}
{"name":"Socruise","category":"web","founded_year":2008,"number_employees":5,"country":"GBR","city":"Kent","address":"32 The Pantiles","latitude":51.125693,"longitude":0.257568,"type_company":"Startup","geopoint":{"type":"Point","coordinates":[0.257568,51.125693]}}
{"name":"Wigadoo","category":"web","founded_year":2007,"number_employees":5,"country":"GBR","city":"London","address":"11 Marshalsea Road","latitude":51.5016514,"longitude":-0.0944873,"type_company":"Big Company","geopoint":{"type":"Point","coordinates":[-0.0944873,51.5016514]}}
{"name":"ORELIA","category":"software","founded_year":2007,"number_employees":5,"country":"FRA","city":"Fontainebleau","address":"17 Rue de la Cloche","latitude":48.407483,"longitude":2.701038,"type_company":"Big Company","geopoint":{"type":"Point","coordinates":[2.701038,48.407483]}}
{"name":"ORELIA","category":"software","founded_year":2007,"number_employees":5,"country":"FRA","city":"THOMERY","address":"20 Chemin des Pr\u00c3\u00a9s","latitude":48.423737,"longitude":2.74495,"type_company":"Big Company","geopoint":{"type":"Point","coordinates":[2.74495,48.423737]}}
{"name":"ipsojobs","category":"software","founded_year":2007,"number_employees":5,"country":"ESP","city":"Barcelona","address":"Pi i Margall, 7","latitude":41.406248,"longitude":2.163194,"type_company":"Big Company","geopoint":{"type":"Point","coordinates":[2.163194,41.406248]}}
{"name":"TweetDeck","category":"software","founded_year":2008,"number_employees":5,"country":"GBR","city":"London","address":"","latitude":51.5001524,"longitude":-0.1262362,"type_company":"Startup","geopoint":{"type":"Point","coordinates":[-0.1262362,51.5001524]}}
{"name":"Travellerspoint","category":"web","founded_year":2002,"number_employees":5,"country":"NOR","city":"Oslo","address":"Langgata 36","latitude":59.92085,"longitude":10.763774,"type_company":"Big Company","geopoint":{"type":"Point","coordinates":[10.763774,59.92085]}}
{"name":"SoGlos","category":"web","founded_year":2007,"number_employees":5,"country":"GBR","city":"Cheltenham Gloucestershire","address":"30 St George's Place","latitude":51.9016572,"longitude":-2.078262,"type_company":"Big Company","geopoint":{"type":"Point","coordinates":[-2.078262,51.9016572]}}
{"name":"Instil Software","category":"software","founded_year":2005,"number_employees":5,"country":"GBR","city":"Belfast","address":"Midtown Business Centre","latitude":54.597233,"longitude":-5.87908,"type_company":"Big Company","geopoint":{"type":"Point","coordinates":[-5.87908,54.597233]}}
{"name":"WebMedic","category":"web","founded_year":2007,"number_employees":5,"country":"NLD","city":"Delft","address":"Kanaalweg 1","latitude":52.004819,"longitude":4.35927,"type_company":"Big Company","geopoint":{"type":"Point","coordinates":[4.35927,52.004819]}}
{"name":"WorkoutBOX","category":"web","founded_year":2008,"number_employees":5,"country":"GBR","city":"Dorking, Surrey","address":"Little Orchard","latitude":51.2798857,"longitude":-0.4274181,"type_company":"Startup","geopoint":{"type":"Point","coordinates":[-0.4274181,51.2798857]}}
{"name":"CompareAway","category":"web","founded_year":2009,"number_employees":5,"country":"GBR","city":"Durham","address":"Green Lane","latitude":54.703145,"longitude":-1.574948,"type_company":"Startup","geopoint":{"type":"Point","coordinates":[-1.574948,54.703145]}}
{"name":"Bridgevest eSolutions","category":"software","founded_year":2007,"number_employees":5,"country":"NLD","city":"Rotterdam","address":"Westblaak 180","latitude":51.916547,"longitude":4.475797,"type_company":"Big Company","geopoint":{"type":"Point","coordinates":[4.475797,51.916547]}}
{"name":"Orinea","category":"web","founded_year":2008,"number_employees":5,"country":"FRA","city":"Paris","address":"56 rue de Londres","latitude":48.8785721,"longitude":2.3249952,"type_company":"Startup","geopoint":{"type":"Point","coordinates":[2.3249952,48.8785721]}}
{"name":"Orinea","category":"web","founded_year":2008,"number_employees":5,"country":"FRA","city":"Casablanca, Maroc","address":"43 bd d'Anfa","latitude":33.5922469,"longitude":-7.6332257,"type_company":"Startup","geopoint":{"type":"Point","coordinates":[-7.6332257,33.5922469]}}
{"name":"AKM","category":"software","founded_year":1989,"number_employees":5,"country":"GBR","city":"Stafford","address":"64 Co-operative Street","latitude":52.81815,"longitude":-2.124184,"type_company":"Big Company","geopoint":{"type":"Point","coordinates":[-2.124184,52.81815]}}
{"name":"Bridgevest eSolutions","category":"software","founded_year":2007,"number_employees":5,"country":"NLD","city":"Rotterdam","address":"Westblaak 180","latitude":51.916547,"longitude":4.475797,"type_company":"Big Company","geopoint":{"type":"Point","coordinates":[4.475797,51.916547]}}
{"name":"Orinea","category":"web","founded_year":2008,"number_employees":5,"country":"FRA","city":"Paris","address":"56 rue de Londres","latitude":48.8785721,"longitude":2.3249952,"type_company":"Startup","geopoint":{"type":"Point","coordinates":[2.3249952,48.8785721]}}
{"name":"Orinea","category":"web","founded_year":2008,"number_employees":5,"country":"FRA","city":"Casablanca, Maroc","address":"43 bd d'Anfa","latitude":33.5922469,"longitude":-7.6332257,"type_company":"Startup","geopoint":{"type":"Point","coordinates":[-7.6332257,33.5922469]}}
{"name":"AKM","category":"software","founded_year":1989,"number_employees":5,"country":"GBR","city":"Stafford","address":"64 Co-operative Street","latitude":52.81815,"longitude":-2.124184,"type_company":"Big Company","geopoint":{"type":"Point","coordinates":[-2.124184,52.81815]}}
{"name":"TimeRime","category":"web","founded_year":2008,"number_employees":5,"country":"NLD","city":"Rotterdam","address":"Lloydstraat 138c","latitude":51.906973,"longitude":4.463134,"type_company":"Startup","geopoint":{"type":"Point","coordinates":[4.463134,51.906973]}}
{"name":"Musicreview","category":"games_video","founded_year":2006,"number_employees":5,"country":"IRL","city":"dublin","address":"14 cherryorchard park","latitude":53.335773,"longitude":-6.371726,"type_company":"Big Company","geopoint":{"type":"Point","coordinates":[-6.371726,53.335773]}}
{"name":"Zone-ViP Network","category":"web","founded_year":2005,"number_employees":5,"country":"FRA","city":"Franconville","address":"20, rue Jeanne d'Arc","latitude":48.995807,"longitude":2.2335404,"type_company":"Big Company","geopoint":{"type":"Point","coordinates":[2.2335404,48.995807]}}
{"name":"VIDDIX","category":"games_video","founded_year":2007,"number_employees":5,"country":"NLD","city":"Utrecht","address":"Padualaan 8","latitude":52.0848526,"longitude":5.1682449,"type_company":"Big Company","geopoint":{"type":"Point","coordinates":[5.1682449,52.0848526]}}
{"name":"Koffeeware","category":"web","founded_year":2005,"number_employees":5,"country":"FRA","city":"Strasbourg","address":"91b rue des Romains","latitude":48.590757,"longitude":7.7521091,"type_company":"Big Company","geopoint":{"type":"Point","coordinates":[7.7521091,48.590757]}}
{"name":"Robbie Networks","category":"web","founded_year":2006,"number_employees":5,"country":"NLD","city":"Utrecht","address":"Drieharingstraat 6-8","latitude":52.0920453,"longitude":5.1163114,"type_company":"Big Company","geopoint":{"type":"Point","coordinates":[5.1163114,52.0920453]}}
{"name":"CareerPlayer","category":"games_video","founded_year":2008,"number_employees":5,"country":"GBR","city":"London","address":"","latitude":51.5001524,"longitude":-0.1262362,"type_company":"Startup","geopoint":{"type":"Point","coordinates":[-0.1262362,51.5001524]}}
{"name":"Kramaley Games","category":"games_video","founded_year":2008,"number_employees":5,"country":"GBR","city":"London","address":"12A Eccleston Street","latitude":51.4944999,"longitude":-0.1479318,"type_company":"Startup","geopoint":{"type":"Point","coordinates":[-0.1479318,51.4944999]}}
{"name":"Entropy Computational Services","category":"games_video","founded_year":2007,"number_employees":5,"country":"ESP","city":"Madrid","address":"C\/ Madrid 10, 2-B","latitude":40.4380872,"longitude":-3.6760635,"type_company":"Big Company","geopoint":{"type":"Point","coordinates":[-3.6760635,40.4380872]}}
{"name":"sexietv","category":"software","founded_year":2008,"number_employees":5,"country":"GBR","city":"london","address":"wimbledon","latitude":51.4213618,"longitude":-0.2075938,"type_company":"Startup","geopoint":{"type":"Point","coordinates":[-0.2075938,51.4213618]}}
{"name":"ulike","category":"web","founded_year":2006,"number_employees":5,"country":"FRA","city":"paris","address":"86 bd soult","latitude":48.8465603,"longitude":2.4110061,"type_company":"Big Company","geopoint":{"type":"Point","coordinates":[2.4110061,48.8465603]}}
{"name":"Core Factor","category":"web","founded_year":2006,"number_employees":5,"country":"PRT","city":"Lisbon","address":"Rua Chaby Pinheiro 15","latitude":38.7445718,"longitude":-9.1460977,"type_company":"Big Company","geopoint":{"type":"Point","coordinates":[-9.1460977,38.7445718]}}
{"name":"Sentry Parental Controls","category":"software","founded_year":2008,"number_employees":5,"country":"GBR","city":"Manchester","address":"Unit 2, Park 17","latitude":53.5195474,"longitude":-2.2550847,"type_company":"Startup","geopoint":{"type":"Point","coordinates":[-2.2550847,53.5195474]}}
{"name":"Pitchero","category":"web","founded_year":2008,"number_employees":5,"country":"GBR","city":"Leeds","address":"Hawthorne House","latitude":53.687153,"longitude":-1.524702,"type_company":"Startup","geopoint":{"type":"Point","coordinates":[-1.524702,53.687153]}}
{"name":"Arimaz","category":"games_video","founded_year":2008,"number_employees":5,"country":"CHE","city":"Renens","address":"Av du 24 Janvier 11","latitude":46.5389248,"longitude":6.5877024,"type_company":"Startup","geopoint":{"type":"Point","coordinates":[6.5877024,46.5389248]}}
{"name":"Actionize","category":"software","founded_year":2007,"number_employees":5,"country":"CHE","city":"Basel","address":"","latitude":47.5596145,"longitude":7.5806107,"type_company":"Big Company","geopoint":{"type":"Point","coordinates":[7.5806107,47.5596145]}}
{"name":"Undead Code Studios","category":"games_video","founded_year":2009,"number_employees":5,"country":"ESP","city":"Madrid","address":"","latitude":40.6367104,"longitude":-3.9980485,"type_company":"Startup","geopoint":{"type":"Point","coordinates":[-3.9980485,40.6367104]}}
{"name":"HURRYCAM","category":"web","founded_year":2009,"number_employees":5,"country":"FRA","city":"Paris","address":"","latitude":48.8566667,"longitude":2.3509871,"type_company":"Startup","geopoint":{"type":"Point","coordinates":[2.3509871,48.8566667]}}
{"name":"GetItWithMe","category":"web","founded_year":2007,"number_employees":5,"country":"GBR","city":"London","address":"","latitude":51.5793731,"longitude":-0.1162418,"type_company":"Big Company","geopoint":{"type":"Point","coordinates":[-0.1162418,51.5793731]}}
{"name":"Kimengi","category":"web","founded_year":2008,"number_employees":5,"country":"NLD","city":"Amsterdam","address":"Keizersgracht 203","latitude":52.3735592,"longitude":4.8852747,"type_company":"Startup","geopoint":{"type":"Point","coordinates":[4.8852747,52.3735592]}}
{"name":"OnlineMQ","category":"software","founded_year":2008,"number_employees":5,"country":"NLD","city":"Den-Haag","address":"Burgemester de monchyplein 182","latitude":52.0889889,"longitude":4.3016891,"type_company":"Startup","geopoint":{"type":"Point","coordinates":[4.3016891,52.0889889]}}
{"name":"Taxi Fares app","category":"software","founded_year":2009,"number_employees":5,"country":"ESP","city":"Madrid","address":"","latitude":40.4244585,"longitude":-3.6990948,"type_company":"Startup","geopoint":{"type":"Point","coordinates":[-3.6990948,40.4244585]}}
{"name":"Keen Software House","category":"games_video","founded_year":2007,"number_employees":5,"country":"GBR","city":"London","address":"145-157 St John Street","latitude":51.5220763,"longitude":-0.1153003,"type_company":"Big Company","geopoint":{"type":"Point","coordinates":[-0.1153003,51.5220763]}}
{"name":"famebook","category":"web","founded_year":2008,"number_employees":5,"country":"GBR","city":"London","address":"","latitude":51.5001524,"longitude":-0.1262362,"type_company":"Startup","geopoint":{"type":"Point","coordinates":[-0.1262362,51.5001524]}}
{"name":"Webtronic","category":"hardware","founded_year":2005,"number_employees":4,"country":"ITA","city":"Arezzo","address":"via Ubaldo Pasqui, 12","latitude":43.454917,"longitude":11.871332,"type_company":"Big Company","geopoint":{"type":"Point","coordinates":[11.871332,43.454917]}}
{"name":"itbreaks","category":"games_video","founded_year":2007,"number_employees":4,"country":"FRA","city":"Pre st gervais","address":"28 rue carnot","latitude":48.887824,"longitude":2.402304,"type_company":"Big Company","geopoint":{"type":"Point","coordinates":[2.402304,48.887824]}}
{"name":"Nsyght","category":"web","founded_year":2007,"number_employees":4,"country":"GBR","city":"Isleworth","address":"","latitude":51.4751999,"longitude":-0.3387433,"type_company":"Big Company","geopoint":{"type":"Point","coordinates":[-0.3387433,51.4751999]}}
{"name":"MESOMOCO","category":"web","founded_year":2008,"number_employees":4,"country":"GBR","city":"Scarborough","address":"PO BOX 442","latitude":54.211373,"longitude":-0.469586,"type_company":"Startup","geopoint":{"type":"Point","coordinates":[-0.469586,54.211373]}}
{"name":"Oronjo","category":"web","founded_year":2007,"number_employees":4,"country":"NLD","city":"Amsterdam","address":"Kattenburgergracht 23","latitude":52.370331,"longitude":4.917203,"type_company":"Big Company","geopoint":{"type":"Point","coordinates":[4.917203,52.370331]}}
{"name":"Forvo","category":"web","founded_year":2008,"number_employees":4,"country":"ESP","city":"San Sebasti\u00e1n","address":"","latitude":43.3135579,"longitude":-1.9820361,"type_company":"Startup","geopoint":{"type":"Point","coordinates":[-1.9820361,43.3135579]}}
{"name":"d-Media","category":"software","founded_year":2002,"number_employees":4,"country":"NLD","city":"Breda","address":"Reduitlaan 33","latitude":51.591047,"longitude":4.762014,"type_company":"Big Company","geopoint":{"type":"Point","coordinates":[4.762014,51.591047]}}
{"name":"Click2Map","category":"web","founded_year":2008,"number_employees":4,"country":"FRA","city":"Metz","address":"57 rue Lothaire","latitude":49.1004,"longitude":6.182658,"type_company":"Startup","geopoint":{"type":"Point","coordinates":[6.182658,49.1004]}}
{"name":"CompuBase Internet Solutions","category":"software","founded_year":2001,"number_employees":4,"country":"NLD","city":"Mill","address":"Eerste Industrieweg 15a","latitude":51.67937,"longitude":5.782043,"type_company":"Big Company","geopoint":{"type":"Point","coordinates":[5.782043,51.67937]}}
{"name":"retaggr","category":"web","founded_year":2008,"number_employees":4,"country":"GBR","city":"London","address":"160-166 Kensington High Street","latitude":51.549167,"longitude":-0.24233,"type_company":"Startup","geopoint":{"type":"Point","coordinates":[-0.24233,51.549167]}}
{"name":"FACEinHOLE","category":"web","founded_year":2008,"number_employees":4,"country":"PRT","city":"Lisbon","address":"","latitude":38.7071631,"longitude":-9.135517,"type_company":"Startup","geopoint":{"type":"Point","coordinates":[-9.135517,38.7071631]}}
{"name":"Tractis","category":"web","founded_year":2005,"number_employees":4,"country":"ESP","city":"Barcelona","address":"Carrer Sant Miquel 122, 5\u00c2\u00ba-3\u00c2\u00aa","latitude":41.3762002,"longitude":2.1897317,"type_company":"Big Company","geopoint":{"type":"Point","coordinates":[2.1897317,41.3762002]}}
{"name":"SLevolution","category":"software","founded_year":2007,"number_employees":4,"country":"GBR","city":"London","address":"94 St Alphonsus Road","latitude":51.4598249,"longitude":-0.1364995,"type_company":"Big Company","geopoint":{"type":"Point","coordinates":[-0.1364995,51.4598249]}}
{"name":"Grapevine Talk","category":"software","founded_year":2008,"number_employees":4,"country":"GBR","city":"London","address":"","latitude":51.5001524,"longitude":-0.1262362,"type_company":"Startup","geopoint":{"type":"Point","coordinates":[-0.1262362,51.5001524]}}
{"name":"Enough Pepper","category":"web","founded_year":2008,"number_employees":4,"country":"PRT","city":"Lisboa","address":"Avenida da Republica","latitude":38.7509471,"longitude":-9.1427493,"type_company":"Startup","geopoint":{"type":"Point","coordinates":[-9.1427493,38.7509471]}}
{"name":"Gifteer","category":"web","founded_year":2008,"number_employees":4,"country":"FRA","city":"Lyon","address":"","latitude":45.767299,"longitude":4.8343287,"type_company":"Startup","geopoint":{"type":"Point","coordinates":[4.8343287,45.767299]}}
{"name":"Think Orange","category":"software","founded_year":2008,"number_employees":4,"country":"PRT","city":"Lisboa","address":"Rua Rodrigues Faria n 103","latitude":38.703497,"longitude":-9.178734,"type_company":"Startup","geopoint":{"type":"Point","coordinates":[-9.178734,38.703497]}}
{"name":"Swiffen","category":"games_video","founded_year":2008,"number_employees":4,"country":"GBR","city":"London","address":"114, St. Martins Lane","latitude":51.5163382,"longitude":-0.0828173,"type_company":"Startup","geopoint":{"type":"Point","coordinates":[-0.0828173,51.5163382]}}
{"name":"Indiconews","category":"web","founded_year":2007,"number_employees":4,"country":"GBR","city":"Canterbury","address":"","latitude":51.2772689,"longitude":1.0805173,"type_company":"Big Company","geopoint":{"type":"Point","coordinates":[1.0805173,51.2772689]}}
{"name":"all140","category":"web","founded_year":2009,"number_employees":4,"country":"AUT","city":"Vienna","address":"Judengasse","latitude":48.2114213,"longitude":16.3736319,"type_company":"Startup","geopoint":{"type":"Point","coordinates":[16.3736319,48.2114213]}}
{"name":"BUSINEO","category":"web","founded_year":2007,"number_employees":4,"country":"FRA","city":"Issy Les Moulineaux","address":"4 bis rue Marcel Miquel","latitude":48.8208454,"longitude":2.2497852,"type_company":"Big Company","geopoint":{"type":"Point","coordinates":[2.2497852,48.8208454]}}
{"name":"Kvittar","category":"web","founded_year":2009,"number_employees":4,"country":"SWE","city":"Malm\u00f6","address":"","latitude":55.6057989,"longitude":12.9950742,"type_company":"Startup","geopoint":{"type":"Point","coordinates":[12.9950742,55.6057989]}}
{"name":"WatZatSong","category":"web","founded_year":2006,"number_employees":3,"country":"FRA","city":"Paris","address":"3, rue Crespin du Gast","latitude":48.866323,"longitude":2.381514,"type_company":"Big Company","geopoint":{"type":"Point","coordinates":[2.381514,48.866323]}}
{"name":"HylioSoft","category":"web","founded_year":2004,"number_employees":3,"country":"FRA","city":"METZ","address":"57 rue Lothaire","latitude":49.1004,"longitude":6.182658,"type_company":"Big Company","geopoint":{"type":"Point","coordinates":[6.182658,49.1004]}}
{"name":"Jiglu","category":"software","founded_year":2003,"number_employees":3,"country":"GBR","city":"London","address":"48 Charlotte St","latitude":51.54236,"longitude":-0.149522,"type_company":"Big Company","geopoint":{"type":"Point","coordinates":[-0.149522,51.54236]}}
{"name":"Web2Wave","category":"web","founded_year":2007,"number_employees":3,"country":"FRA","city":"Tolouse","address":"","latitude":43.604071,"longitude":1.434685,"type_company":"Big Company","geopoint":{"type":"Point","coordinates":[1.434685,43.604071]}}
{"name":"]project-open[","category":"software","founded_year":2003,"number_employees":3,"country":"ESP","city":"Barcelona","address":"Ronda de Sant Anton\u00e3, 51, 1o 2a","latitude":41.383182,"longitude":2.163697,"type_company":"Big Company","geopoint":{"type":"Point","coordinates":[2.163697,41.383182]}}
{"name":"IT'S ART","category":"web","founded_year":2007,"number_employees":3,"country":"FRA","city":"Niort","address":"59 Bis rue de Geneve","latitude":46.330771,"longitude":-0.474933,"type_company":"Big Company","geopoint":{"type":"Point","coordinates":[-0.474933,46.330771]}}
{"name":"trymehere","category":"web","founded_year":2006,"number_employees":3,"country":"GBR","city":"Farnborough, Hants","address":"183 Sycamore Rod","latitude":51.287062,"longitude":-0.744466,"type_company":"Big Company","geopoint":{"type":"Point","coordinates":[-0.744466,51.287062]}}
{"name":"Lingoloopy","category":"web","founded_year":2007,"number_employees":3,"country":"GBR","city":"London","address":"","latitude":51.500152,"longitude":-0.126236,"type_company":"Big Company","geopoint":{"type":"Point","coordinates":[-0.126236,51.500152]}}
{"name":"Textensor","category":"web","founded_year":2005,"number_employees":3,"country":"GBR","city":"Edinburgh","address":"37 McDonald Rd","latitude":55.96229,"longitude":-3.182321,"type_company":"Big Company","geopoint":{"type":"Point","coordinates":[-3.182321,55.96229]}}
{"name":"Worship Journal","category":"web","founded_year":2008,"number_employees":3,"country":"GBR","city":"London","address":"18 Bentinck Street","latitude":51.517076,"longitude":-0.150417,"type_company":"Startup","geopoint":{"type":"Point","coordinates":[-0.150417,51.517076]}}
{"name":"Pixy Ltd","category":"web","founded_year":2006,"number_employees":3,"country":"GBR","city":"Maidenhead","address":"2a Bracken Road","latitude":51.508466,"longitude":-0.742987,"type_company":"Big Company","geopoint":{"type":"Point","coordinates":[-0.742987,51.508466]}}
{"name":"Twonq","category":"web","founded_year":2008,"number_employees":3,"country":"NLD","city":"Delft","address":"Delftechpark 37i","latitude":51.9973515,"longitude":4.3848574,"type_company":"Startup","geopoint":{"type":"Point","coordinates":[4.3848574,51.9973515]}}
{"name":"Easy-IT","category":"web","founded_year":2006,"number_employees":3,"country":"FRA","city":"JACOU","address":"15 Avenue Charles Cros","latitude":43.6569655,"longitude":3.9022353,"type_company":"Big Company","geopoint":{"type":"Point","coordinates":[3.9022353,43.6569655]}}
{"name":"Twonq","category":"web","founded_year":2008,"number_employees":3,"country":"NLD","city":"Delft","address":"Delftechpark 37i","latitude":51.9973515,"longitude":4.3848574,"type_company":"Startup","geopoint":{"type":"Point","coordinates":[4.3848574,51.9973515]}}
{"name":"Easy-IT","category":"web","founded_year":2006,"number_employees":3,"country":"FRA","city":"JACOU","address":"15 Avenue Charles Cros","latitude":43.6569655,"longitude":3.9022353,"type_company":"Big Company","geopoint":{"type":"Point","coordinates":[3.9022353,43.6569655]}}
{"name":"Maptimize","category":"web","founded_year":2008,"number_employees":3,"country":"FRA","city":"Cesson S\u00c3\u00a9vign\u00c3\u00a9","address":"Centre d'affaire les Aliz\u00c3\u00a9s","latitude":48.10583,"longitude":-1.611882,"type_company":"Startup","geopoint":{"type":"Point","coordinates":[-1.611882,48.10583]}}
{"name":"Iteria, SARL","category":"web","founded_year":2006,"number_employees":3,"country":"FRA","city":"Paris","address":"","latitude":48.856667,"longitude":2.350987,"type_company":"Big Company","geopoint":{"type":"Point","coordinates":[2.350987,48.856667]}}
{"name":"Tiiptop","category":"web","founded_year":2008,"number_employees":3,"country":"FRA","city":"Paris","address":"","latitude":48.8566667,"longitude":2.3509871,"type_company":"Startup","geopoint":{"type":"Point","coordinates":[2.3509871,48.8566667]}}
{"name":"Computing Data","category":"software","founded_year":2007,"number_employees":3,"country":"GBR","city":"Grimsargh Preston","address":"329 Preston Road,","latitude":53.8070285,"longitude":-2.6172859,"type_company":"Big Company","geopoint":{"type":"Point","coordinates":[-2.6172859,53.8070285]}}
{"name":"Neurotic","category":"web","founded_year":2004,"number_employees":3,"country":"ESP","city":"Barcelona","address":"C\/Ortigosa 14","latitude":41.3887383,"longitude":2.1756189,"type_company":"Big Company","geopoint":{"type":"Point","coordinates":[2.1756189,41.3887383]}}
{"name":"Gemzies","category":"games_video","founded_year":2008,"number_employees":3,"country":"NLD","city":"Amsterdam","address":"Anthony Fokkerweg 21","latitude":52.342938,"longitude":4.8419083,"type_company":"Startup","geopoint":{"type":"Point","coordinates":[4.8419083,52.342938]}}
{"name":"GymFu","category":"web","founded_year":2009,"number_employees":3,"country":"GBR","city":"Ringwood, Hampshire","address":"7 Duck Island Lane","latitude":50.841938,"longitude":-1.7884785,"type_company":"Startup","geopoint":{"type":"Point","coordinates":[-1.7884785,50.841938]}}
{"name":"BUGBYTE","category":"software","founded_year":2005,"number_employees":3,"country":"NLD","city":"Breda","address":"Oude Vest 4","latitude":51.5864572,"longitude":4.7787001,"type_company":"Big Company","geopoint":{"type":"Point","coordinates":[4.7787001,51.5864572]}}
{"name":"JoggingBuddy","category":"web","founded_year":2008,"number_employees":3,"country":"GBR","city":"Cambridge","address":"","latitude":52.2025441,"longitude":0.1312368,"type_company":"Startup","geopoint":{"type":"Point","coordinates":[0.1312368,52.2025441]}}
{"name":"Mediastroika","category":"games_video","founded_year":2008,"number_employees":3,"country":"FRA","city":"Paris","address":"42 rue Godefroy Cavaignac","latitude":48.8557544,"longitude":2.3808328,"type_company":"Startup","geopoint":{"type":"Point","coordinates":[2.3808328,48.8557544]}}
{"name":"Restox","category":"web","founded_year":2008,"number_employees":3,"country":"GBR","city":"","address":"","latitude":51.421686,"longitude":-0.1419622,"type_company":"Startup","geopoint":{"type":"Point","coordinates":[-0.1419622,51.421686]}}
{"name":"Wijng","category":"web","founded_year":2008,"number_employees":3,"country":"AUT","city":"Graz","address":"","latitude":47.0743531,"longitude":15.454803,"type_company":"Startup","geopoint":{"type":"Point","coordinates":[15.454803,47.0743531]}}
{"name":"Pixel Vivant","category":"software","founded_year":2005,"number_employees":3,"country":"FRA","city":"Saint-Malo","address":"54, rue du Grand Jardin","latitude":48.6276289,"longitude":-1.9856858,"type_company":"Big Company","geopoint":{"type":"Point","coordinates":[-1.9856858,48.6276289]}}
{"name":"River Horse","category":"games_video","founded_year":2007,"number_employees":3,"country":"GBR","city":"Wollaton (Nottingham)","address":"156 Russell Drive","latitude":52.955042,"longitude":-1.217092,"type_company":"Big Company","geopoint":{"type":"Point","coordinates":[-1.217092,52.955042]}}
{"name":"YesOrNow","category":"web","founded_year":2009,"number_employees":3,"country":"FRA","city":"Paris","address":"34, bld de Clichy","latitude":48.882769,"longitude":2.336453,"type_company":"Startup","geopoint":{"type":"Point","coordinates":[2.336453,48.882769]}}
{"name":"Greenvoice","category":"web","founded_year":2007,"number_employees":3,"country":"GBR","city":"London","address":"1 Angel Court","latitude":51.5147349,"longitude":-0.0874239,"type_company":"Big Company","geopoint":{"type":"Point","coordinates":[-0.0874239,51.5147349]}}
{"name":"BetKlub","category":"games_video","founded_year":2008,"number_employees":3,"country":"FRA","city":"Paris","address":"17 rue Eug\u00c3\u00a8ne Varlin","latitude":48.8787606,"longitude":2.3639174,"type_company":"Startup","geopoint":{"type":"Point","coordinates":[2.3639174,48.8787606]}}
{"name":"AgileJ Limited","category":"software","founded_year":2006,"number_employees":3,"country":"GBR","city":"Surbiton","address":"2nd Floor St James House","latitude":51.393654,"longitude":-0.3062632,"type_company":"Big Company","geopoint":{"type":"Point","coordinates":[-0.3062632,51.393654]}}
{"name":"Zamzar","category":"web","founded_year":2006,"number_employees":2,"country":"GBR","city":"Southampton","address":"","latitude":50.9444598,"longitude":-1.3610845,"type_company":"Big Company","geopoint":{"type":"Point","coordinates":[-1.3610845,50.9444598]}}
{"name":"Clipperz","category":"web","founded_year":2005,"number_employees":2,"country":"ITA","city":"Bagnacavallo","address":"Via Berti 137","latitude":44.418166,"longitude":11.978686,"type_company":"Big Company","geopoint":{"type":"Point","coordinates":[11.978686,44.418166]}}
{"name":"Tipped","category":"web","founded_year":2007,"number_employees":2,"country":"GBR","city":"London","address":"17 Blossom Street","latitude":51.5211159,"longitude":-0.0778345,"type_company":"Big Company","geopoint":{"type":"Point","coordinates":[-0.0778345,51.5211159]}}
{"name":"Wordki","category":"web","founded_year":2008,"number_employees":2,"country":"GBR","city":"","address":"","latitude":55.378051,"longitude":-3.435973,"type_company":"Startup","geopoint":{"type":"Point","coordinates":[-3.435973,55.378051]}}
{"name":"Get the Point","category":"web","founded_year":2006,"number_employees":2,"country":"GBR","city":"Edinburgh, Scotland","address":"27 Lauriston Street","latitude":55.945399,"longitude":-3.201328,"type_company":"Big Company","geopoint":{"type":"Point","coordinates":[-3.201328,55.945399]}}
{"name":"Kalibera","category":"web","founded_year":2008,"number_employees":2,"country":"NOR","city":"Oslo","address":"","latitude":59.91382,"longitude":10.738741,"type_company":"Startup","geopoint":{"type":"Point","coordinates":[10.738741,59.91382]}}
{"name":"Xteque","category":"web","founded_year":2006,"number_employees":2,"country":"ITA","city":"Milan","address":"Via Podgora 13","latitude":45.461552,"longitude":9.203316,"type_company":"Big Company","geopoint":{"type":"Point","coordinates":[9.203316,45.461552]}}
{"name":"Zogix","category":"software","founded_year":2006,"number_employees":2,"country":"GBR","city":"","address":"26, lower kings road","latitude":51.762918,"longitude":-0.56253,"type_company":"Big Company","geopoint":{"type":"Point","coordinates":[-0.56253,51.762918]}}
{"name":"Jobingenieur","category":"web","founded_year":2008,"number_employees":2,"country":"FRA","city":"Rennes","address":"43 rue Fran\u00c3\u00a7ois Charles Oberthur","latitude":48.1128512,"longitude":-1.6629087,"type_company":"Startup","geopoint":{"type":"Point","coordinates":[-1.6629087,48.1128512]}}
{"name":"Implicit Link","category":"web","founded_year":2006,"number_employees":2,"country":"NLD","city":"Enschede","address":"Oldenzaalsestraat 155","latitude":52.227998,"longitude":6.900318,"type_company":"Big Company","geopoint":{"type":"Point","coordinates":[6.900318,52.227998]}}
{"name":"Agmachine","category":"web","founded_year":1999,"number_employees":2,"country":"GBR","city":"Steyning","address":"25 Roman Road","latitude":50.886906,"longitude":-0.317908,"type_company":"Big Company","geopoint":{"type":"Point","coordinates":[-0.317908,50.886906]}}
{"name":"Inovatis","category":"web","founded_year":2005,"number_employees":2,"country":"FRA","city":"Lipsheim","address":"5 rue Massenet","latitude":48.491885,"longitude":7.664067,"type_company":"Big Company","geopoint":{"type":"Point","coordinates":[7.664067,48.491885]}}
{"name":"Moosti","category":"web","founded_year":2008,"number_employees":2,"country":"PRT","city":"","address":"","latitude":39.399872,"longitude":-8.224454,"type_company":"Startup","geopoint":{"type":"Point","coordinates":[-8.224454,39.399872]}}
{"name":"Sazell","category":"web","founded_year":2008,"number_employees":2,"country":"GBR","city":"London","address":"","latitude":51.500152,"longitude":-0.126236,"type_company":"Startup","geopoint":{"type":"Point","coordinates":[-0.126236,51.500152]}}
{"name":"939 Design","category":"web","founded_year":2006,"number_employees":2,"country":"GBR","city":"East Yorkshire","address":"10 The Circle","latitude":53.725204,"longitude":-0.439392,"type_company":"Big Company","geopoint":{"type":"Point","coordinates":[-0.439392,53.725204]}}
{"name":"Xilinus","category":"web","founded_year":2008,"number_employees":2,"country":"FRA","city":"Cesson S\u00c3\u00a9vign\u00c3\u00a9","address":"Centre d'affaire les Aliz\u00c3\u00a9s","latitude":48.10583,"longitude":-1.611882,"type_company":"Startup","geopoint":{"type":"Point","coordinates":[-1.611882,48.10583]}}
{"name":"Buy Our Honeymoon","category":"web","founded_year":2007,"number_employees":2,"country":"GBR","city":"Kent","address":"10 Hamilton Road","latitude":51.484638,"longitude":0.001682,"type_company":"Big Company","geopoint":{"type":"Point","coordinates":[0.001682,51.484638]}}
{"name":"Cityflats4you","category":"web","founded_year":2008,"number_employees":2,"country":"AUT","city":"Vienna","address":"Stauraczgasse 7","latitude":48.182591,"longitude":16.357786,"type_company":"Startup","geopoint":{"type":"Point","coordinates":[16.357786,48.182591]}}
{"name":"2Big2Send","category":"web","founded_year":2007,"number_employees":2,"country":"GBR","city":"Oxford","address":"10 Lytton Road","latitude":51.734276,"longitude":-1.221595,"type_company":"Big Company","geopoint":{"type":"Point","coordinates":[-1.221595,51.734276]}}
{"name":"Cityflats4you","category":"web","founded_year":2008,"number_employees":2,"country":"AUT","city":"Vienna","address":"Stauraczgasse 7","latitude":48.182591,"longitude":16.357786,"type_company":"Startup","geopoint":{"type":"Point","coordinates":[16.357786,48.182591]}}
{"name":"2Big2Send","category":"web","founded_year":2007,"number_employees":2,"country":"GBR","city":"Oxford","address":"10 Lytton Road","latitude":51.734276,"longitude":-1.221595,"type_company":"Big Company","geopoint":{"type":"Point","coordinates":[-1.221595,51.734276]}}
{"name":"WWCTN","category":"web","founded_year":2008,"number_employees":2,"country":"GBR","city":"Aberdeen","address":"","latitude":57.1254952,"longitude":-2.1334772,"type_company":"Startup","geopoint":{"type":"Point","coordinates":[-2.1334772,57.1254952]}}
{"name":"Speedchecker","category":"web","founded_year":2008,"number_employees":2,"country":"GBR","city":"Bristol","address":"213 Redland Road","latitude":51.4749263,"longitude":-2.6136797,"type_company":"Startup","geopoint":{"type":"Point","coordinates":[-2.6136797,51.4749263]}}
{"name":"Weddingdates","category":"web","founded_year":2008,"number_employees":2,"country":"IRL","city":"Cork","address":"CIT Campus","latitude":52.6423449,"longitude":-8.5878882,"type_company":"Startup","geopoint":{"type":"Point","coordinates":[-8.5878882,52.6423449]}}
{"name":"Heralsoft","category":"web","founded_year":2008,"number_employees":2,"country":"ESP","city":"Gijon","address":"Rio Nervion 12","latitude":43.5222205,"longitude":-5.665828,"type_company":"Startup","geopoint":{"type":"Point","coordinates":[-5.665828,43.5222205]}}
{"name":"3C Limited","category":"web","founded_year":2007,"number_employees":2,"country":"GBR","city":"London","address":"156 Blackfriars Road","latitude":51.5026763,"longitude":-0.104579,"type_company":"Big Company","geopoint":{"type":"Point","coordinates":[-0.104579,51.5026763]}}
{"name":"Fotohoo","category":"games_video","founded_year":2007,"number_employees":2,"country":"ESP","city":"Barcelona","address":"","latitude":41.387917,"longitude":2.1699187,"type_company":"Big Company","geopoint":{"type":"Point","coordinates":[2.1699187,41.387917]}}
{"name":"Fanurio Time Tracking","category":"software","founded_year":2006,"number_employees":2,"country":"NLD","city":"Amstelveen","address":"Van Heuven Goedhartlaan 937","latitude":52.3121338,"longitude":4.8697724,"type_company":"Big Company","geopoint":{"type":"Point","coordinates":[4.8697724,52.3121338]}}
{"name":"Interacto","category":"web","founded_year":2009,"number_employees":2,"country":"NLD","city":"Heeze","address":"de Boelakkers 4","latitude":51.3673409,"longitude":5.5858466,"type_company":"Startup","geopoint":{"type":"Point","coordinates":[5.5858466,51.3673409]}}
{"name":"Mapplr","category":"software","founded_year":2008,"number_employees":2,"country":"NLD","city":"Amsterdam","address":"Hartenstraat 5A","latitude":52.3722556,"longitude":4.8864897,"type_company":"Startup","geopoint":{"type":"Point","coordinates":[4.8864897,52.3722556]}}
{"name":"watercompare","category":"web","founded_year":2008,"number_employees":2,"country":"GBR","city":"london","address":"","latitude":51.5001524,"longitude":-0.1262362,"type_company":"Startup","geopoint":{"type":"Point","coordinates":[-0.1262362,51.5001524]}}
{"name":"Folia","category":"web","founded_year":2007,"number_employees":2,"country":"GBR","city":"","address":"","latitude":51.5450909,"longitude":-0.1867769,"type_company":"Big Company","geopoint":{"type":"Point","coordinates":[-0.1867769,51.5450909]}}
{"name":"Tweenjo","category":"web","founded_year":2009,"number_employees":2,"country":"GBR","city":"London","address":"72 New Bond Street","latitude":51.5137747,"longitude":-0.1459893,"type_company":"Startup","geopoint":{"type":"Point","coordinates":[-0.1459893,51.5137747]}}
{"name":"Space Spare","category":"web","founded_year":2009,"number_employees":2,"country":"GBR","city":"London","address":"3 Monnery Road","latitude":51.5603951,"longitude":-0.1365725,"type_company":"Startup","geopoint":{"type":"Point","coordinates":[-0.1365725,51.5603951]}}
{"name":"OCTALINE","category":"web","founded_year":2009,"number_employees":2,"country":"FRA","city":"Levallois-Perret","address":"13, Rue Paul Vaillant Couturier","latitude":48.8964115,"longitude":2.2863338,"type_company":"Startup","geopoint":{"type":"Point","coordinates":[2.2863338,48.8964115]}}
{"name":"quimica_visual","category":"web","founded_year":2007,"number_employees":2,"country":"ESP","city":"Barcelona","address":"","latitude":41.3723033,"longitude":2.1560753,"type_company":"Big Company","geopoint":{"type":"Point","coordinates":[2.1560753,41.3723033]}}
{"name":"Hostarting","category":"web","founded_year":2009,"number_employees":2,"country":"ESP","city":"Toledo","address":"Recodo del Pinar 9","latitude":39.8725119,"longitude":-4.0210296,"type_company":"Startup","geopoint":{"type":"Point","coordinates":[-4.0210296,39.8725119]}}
{"name":"Pixlr","category":"software","founded_year":2008,"number_employees":2,"country":"SWE","city":"Stockholm","address":"","latitude":59.3327881,"longitude":18.0644881,"type_company":"Startup","geopoint":{"type":"Point","coordinates":[18.0644881,59.3327881]}}
{"name":"Movip","category":"web","founded_year":2009,"number_employees":2,"country":"PRT","city":"Lisbon","address":"","latitude":38.7071631,"longitude":-9.135517,"type_company":"Startup","geopoint":{"type":"Point","coordinates":[-9.135517,38.7071631]}}
{"name":"OnePage","category":"web","founded_year":2009,"number_employees":2,"country":"GBR","city":"Birmingham","address":"BSEEN, Birmingham Science Park","latitude":53.3706564,"longitude":-1.5613493,"type_company":"Startup","geopoint":{"type":"Point","coordinates":[-1.5613493,53.3706564]}}
{"name":"My TV Shows","category":"games_video","founded_year":2007,"number_employees":2,"country":"PRT","city":"Lisbon","address":"Rua Ros\u00c3\u00a1lia de Castro","latitude":38.7523672,"longitude":-9.1462209,"type_company":"Big Company","geopoint":{"type":"Point","coordinates":[-9.1462209,38.7523672]}}